약국명,우편번호,주소,전화번호,위도,경도
큰곰약국,10275,"경기도 고양시 덕양구 혜음로 9 정호빌딩 1층 2,3호 (고양동)",031-962-5685,37.7015268,126.9015817
7층은약국,14048,경기도 안양시 동안구 시민대로 175 동안프라자빌딩 704-1호 (비산동),031-383-2461,37.3913538,126.9504303
다올약국,7910,서울특별시 양천구 남부순환로40길 7 (신월동),02-2601-0033,37.5349143,126.8281616
솔로몬약국,21930,"인천광역시 연수구 용담로 153 대동월드스포츠센터 2층 201호 일부, 201-1호 (연수동)",032-822-3360,37.4132869,126.6814138
성신약국,16216,"경기도 수원시 장안구 연무로 54 (연무동, 방내과소아과)",031-255-1531,37.2957779,127.0258248
치유약국,22006,인천광역시 연수구 아트센터대로168번길 100 한라 웨스턴파크 송도 152호 (송도동),,37.4060391,126.6289628
지행온누리약국,11346,경기도 동두천시 지행로 59 102호 (지행동),031-864-1475,37.8926971,127.0537856
화양종로약국,5002,서울특별시 광진구 군자로 73 1층 (군자동),02-463-0380,37.5496851,127.0705995
호랑이약국,22008,인천광역시 연수구 인천타워대로 257 아트포레 A동 1층 123호 (송도동),-,37.3938049,126.6332243
건강약국,3076,서울특별시 종로구 혜화로 2 1층 (혜화동),02-764-9918,37.5860916,127.0009187
4층현약국,2645,서울특별시 동대문구 천호대로 425 4층 401호 (장안동),02-2245-3015,37.5618203,127.0664831
서강약국,61627,광주광역시 남구 구성로 46-1 (월산동),062-361-3253,35.1514058,126.9018509
정민약국,57536,전라남도 곡성군 곡성읍 중앙로 99 (),061-363-0343,35.2805907,127.2936221
태평양약국,37166,경상북도 상주시 동수로 161 1층 (무양동),054-536-6668,36.4229222,128.1554266
광혜당약국,35317,대전광역시 서구 도산로 200 (변동),042-527-7573,36.3260547,127.3797397
연합약국,37335,경상북도 의성군 의성읍 북부길 1-1 (),054-995-9897,36.3566007,128.6938383
류약국,42038,대구광역시 수성구 화랑로 46 성원넥서스 지하2층 (만촌동),,35.869891,128.6331534
롯데약국,46243,부산광역시 금정구 구서로 17 1층 (구서동),051-583-6881,35.2466285,129.0890496
태광약국,47569,부산광역시 연제구 과정로164번길 9 (연산동),051-754-9921,35.1861803,129.107769
이화자연약국,48578,"부산광역시 남구 용호로 113 301-2호 (용호동, 엘지메트로시티상가2)",051-612-2804,35.1220754,129.1124674
밀양약국,50430,"경상남도 밀양시 석정로 7-1 (내일동, 남정빌딩)",055-354-2335,35.4915422,128.7529595
고양스타약국,10595,경기도 고양시 덕양구 고양대로 1955 스타필드 고양 B1층 245호 (동산동),031-5173-0405,37.6469771,126.894778
필약국,5328,"서울특별시 강동구 올림픽로 664 2층 214호 (천호동, 대우 한강 베네시티)",02-485-2812,37.5405554,127.1249758
대학온누리약국,3605,서울특별시 서대문구 홍은중앙로 100-1 (홍은동),02-3411-8776,37.5994018,126.948653
믿음약국,31127,충청남도 천안시 동남구 충절로 116 101호 (원성동),,36.8085524,127.1581804
더?스타시티약국,5065,"서울특별시 광진구 아차산로 272 (자양동, 스타시티쇼핑몰)",02-2024-1311,37.5385583,127.0729962
우리들약국,5241,서울특별시 강동구 올림픽로 781 (암사동),02-427-0012,37.551009,127.1275705
훈훈약국,50650,경상남도 양산시 동면 금오13길 20 센텀빌딩 103~104호,055-385-0427,35.3175131,129.0257594
태장온누리약국,16698,"경기도 수원시 영통구 덕영대로 1505 (영통동, 늘푸른빌딩)",031-202-4566,37.2461191,127.055503
이양약국,58165,전라남도 화순군 이양면 학포로 558 (),061-372-3011,34.8872404,126.9878375
통영햇살약국,53037,경상남도 통영시 중앙로 312 태종빌딩 1층 (무전동),055-642-9126,34.8581228,128.428932
서울온누리약국,13831,"경기도 과천시 별양로 182-2 (부림동, 46번지 시대빌딩 102호, 102-1호)",02-502-9799,37.4340965,126.9981746
조은약국,47591,부산광역시 연제구 월드컵대로 24 (연산동),051-866-9655,35.1769359,129.0860253
두드림약국,16422,경기도 수원시 팔달구 일월로22번길 15 (화서동),031-298-2980,37.2858708,126.9806024
윤약국,37623,경상북도 포항시 북구 두호로 56 1층 (두호동),054-253-8205,36.060956,129.3724327
아이튼튼약국,49356,부산광역시 사하구 사하로 188 1층 (괴정동),051-204-5050,35.0985409,128.9941683
건강일등약국,51473,경상남도 창원시 성산구 삼정자로43번길 8 성주빌딩 1층 103호 (성주동),055-285-9365,35.1987709,128.7110238
한결약국,12112,경기도 남양주시 별내중앙로 50 101호 (별내동),,37.6471015,127.1239972
평화백제약국,55122,전라북도 전주시 완산구 모악로 4774 106호 (평화동1가),063-223-4789,35.7951994,127.1330949
늘봄약국,48499,"부산광역시 남구 수영로 304 8층 (대연동, 대승타워)",051-625-5565,35.1367995,129.0995214
대한약국,46950,부산광역시 사상구 사상로 295 (덕포동),051-305-2302,35.1711785,128.9827828
세영약국,47393,"부산광역시 부산진구 진사로61번길 29 (개금동, 시영아파트)",051-892-1470,35.1464855,129.0185282
청주약국,27852,충청북도 진천군 덕산읍 초금로 760 청주약국,043-536-4202,36.9121544,127.5066159
녹원약국,5630,서울특별시 송파구 백제고분로50길 26 1층 (방이동),02-423-0203,37.513444,127.1174244
정성온누리약국,7436,서울특별시 영등포구 신길로 36 (신길동),02-834-0191,37.4957913,126.9087385
은파약국,54145,전라북도 군산시 의료원로 159 신일아파트상가 (나운동),063-462-2710,35.9587119,126.6990773
홍약국,48963,부산광역시 중구 흑교로 53-1 (보수동2가),051-513-8911,35.104234,129.0245281
보은당약국,3468,서울특별시 은평구 응암로22길 28-6 1층 (응암동),02-374-8683,37.5932885,126.9210758
세림약국,51388,경상남도 창원시 의창구 우곡로217번길 33 호텔그레이 1층 101호 (명서동),055-288-1754,35.241789,128.6500297
뉴경남약국,52726,경상남도 진주시 진주대로 868 (칠암동),055-757-6009,35.1780527,128.0919938
경호강약국,52249,경상남도 산청군 신안면 원지로4번길 2 (신안면),055-973-5282,35.3031518,127.972576
늘사랑약국,21568,인천광역시 남동구 문화서로4번길 38 (구월동),434-5556,37.4447889,126.6969437
행복약국,3662,서울특별시 서대문구 거북골로 17 1층 (홍은동),02-6407-3119,37.5804202,126.9254372
우리들온누리약국,17117,경기도 용인시 처인구 남사읍 한숲로 84 1층 129호 (e편한세상 용인 한숲시티),031-336-7789,37.1545927,127.1741061
호호약국,2832,서울특별시 성북구 동소문로 63 드림트리빌딩 1층 (동소문동4가),02-2039-1752,37.5916439,127.0122138
호호약국,47592,부산광역시 연제구 연수로 177 2층 201호 (연산동),051-911-6091,35.1743848,129.0901298
오거리 수약국,17363,"경기도 이천시 이섭대천로 1242 107호 (창전동, 정곤빌딩)",031-631-7541,37.2812207,127.4472093
한양수약국,12048,경기도 남양주시 오남읍 양지로 47-39 (),031-571-1988,37.6830921,127.2040371
편한약국,48287,"부산광역시 수영구 광안해변로295번길 3 1층 101호 (민락동, 드림팰리스)",051-711-9090,35.1566367,129.1255935
파티마약국,42726,"대구광역시 달서구 학산로7길 39 (월성동,월성주공3단지 상가 110호)",053-635-6446,35.8328741,128.5305579
이층약국,58456,전라남도 영암군 삼호읍 대불주거로 187 삼호농협공단지점 2층 202호,061-461-9700,34.7550119,126.4558953
한티역약국,6218,서울특별시 강남구 도곡로 323 다른빌딩 1층 (역삼동),02-3453-9982,37.4961015,127.0514466
팔용온누리약국,51373,"경상남도 창원시 의창구 팔용로 438 (팔용동, 팔용종합상가)",055-293-2090,35.2553368,128.6135031
맑은약국,48111,부산광역시 해운대구 해운대로 802 웅신시네아트 B동 2층 202-1호 (좌동),051-702-5147,35.1691635,129.1766569
호반약국,3391,"서울특별시 은평구 통일로 767 401동 225호 (대조동, 베르디움STAY1)",,37.6133827,126.9269422
로타리약국,49254,부산광역시 서구 자갈치로 2 (충무동1가),0507-1357-4065,35.0962013,129.02474
스타약국,13249,경기도 성남시 중원구 산성대로 352 1층 (중앙동),031-732-4055,37.4438094,127.1555392
수온누리약국,39660,경상북도 김천시 혁신4로 9 (율곡동),054-439-7571,36.121415,128.182541
행복한약국,61660,광주광역시 남구 백양로 11 1층 (백운동),062-675-1127,35.1338333,126.9031568
비전중앙약국,17854,경기도 평택시 비전5로 16 프라우빌딩 1층 111-나호 (비전동),031-657-7888,36.999843,127.1132563
송현약국,61487,광주광역시 동구 백서로 133 (금동),062-236-5525,35.142349,126.9198157
하마정약국,47207,부산광역시 부산진구 동평로 366 1층 (양정동),051-861-6288,35.1745728,129.0652806
호수온누리약국,10896,경기도 파주시 경의로 1204 월드타워10차 105호 (와동동),031-946-5112,37.724999,126.7615095
그랜드약국,13600,"경기도 성남시 분당구 돌마로356번길 3 303호 (수내동, 그랜드프라자)",031-711-7574,37.3697159,127.1233299
삼환약국,13493,경기도 성남시 분당구 판교역로 230 2층 214호 (삼평동),031-698-3511,37.4012225,127.1105085
토마스약국,44461,울산광역시 중구 명륜로 75 (우정동),052-248-3556,35.5582382,129.3119058
유한당약국,56162,전라북도 정읍시 우암로 6 유한당약국 (시기동),532-8855,35.5639239,126.8541335
삼성메디컬약국,18008,"경기도 평택시 고덕갈평6길 29 109,110호 (고덕동)",031-665-6463,37.0573027,127.0474399
부평자애약국,21430,인천광역시 부평구 동수로 50 (부평동),032-508-4098,37.4851102,126.724136
유진온누리약국,10381,"경기도 고양시 일산서구 중앙로 1565 104호 (대화동, 메드위즈빌딩)",031-915-3382,37.675623,126.7477162
행복온누리약국,11662,경기도 의정부시 가능로 50 (가능동),031-872-6043,37.7465825,127.0367011
새봄약국,49464,부산광역시 사하구 다대로 234 (장림동),051-711-0370,35.0815768,128.9769323
안양새천년약국,13958,경기도 안양시 만안구 경수대로 1173 1층 (안양동),031-473-3258,37.4151155,126.9174829
정릉열린약국,2717,서울특별시 성북구 보국문로 40-3 (정릉동),02-911-2486,37.6083631,127.0101819
로뎀약국,46981,부산광역시 사상구 새벽로168번길 51 (감전동),051-321-2042,35.1556512,128.9861872
포도나무약국,10816,경기도 파주시 문산읍 방촌로 1675-34 (),031-954-7501,37.8641994,126.7806675
장생약국,38628,경상북도 경산시 중앙로 66 101호 (중방동),,35.8223695,128.7343694
신바오로약국,3311,"서울특별시 은평구 통일로 1030 은평헤스티아 1층 111,112호 (진관동)",02-962-1356,37.6341902,126.9176679
유진온누리약국,12999,경기도 하남시 감일백제로180번길 17 퀸즈에비뉴 1층 124호 (감이동),02-474-9047,37.5092034,127.1548273
은약국,3941,서울특별시 마포구 월드컵북로 224 청화상가 302호 (성산동),,37.5698817,126.9045075
사랑약국,58011,전라남도 순천시 해룡면 신대4길 4-25 1층,061-752-8275,34.9338217,127.5520698
기린약국,12771,경기도 광주시 신현로 51 2층,031-714-1614,37.3608578,127.1525281
남악약국,58567,"전라남도 무안군 삼향읍 남악4로 86 한양에드가 오피스텔 1차 1층 106,113호",061-285-3993,34.8131458,126.4664143
삼성웰약국,8793,서울특별시 관악구 남부순환로 1932 1층 (봉천동),,37.4768293,126.9635703
영재약국,57956,전라남도 순천시 중앙로 54 (장천동),061-745-7474,34.9506923,127.4844767
정래약국,32738,충청남도 금산군 금산읍 인삼로 79 (),041-751-2333,36.1031315,127.4905718
해뜨는약국,52517,경상남도 사천시 사천읍 선평길 17 (사천읍),055-855-0717,35.0801695,128.0914359
동화약국,3079,서울특별시 종로구 창경궁로 234 동화빌딩 103호 (명륜4가),02-762-0045,37.5824974,126.9985547
더조은약국,6374,"서울특별시 강남구 자곡로3길 21 상가1동 B202호 (자곡동, LH강남힐스테이트)",02-459-3005,37.4711594,127.0884362
메디약국,12141,"경기도 남양주시 경춘로 1511 (호평동, 메디피아클리닉)",031-593-1902,37.6555721,127.259395
옥정태평양약국,11473,경기도 양주시 회천남로 88 (옥정동),031-865-5855,37.8185483,127.0927954
새봄약국,3115,서울특별시 종로구 종로 374 1층 (숭인동),02-2138-1665,37.5737711,127.0190725
양지약국,2010,서울특별시 중랑구 동일로 865 1층 (묵동),02-972-6254,37.6075294,127.0780204
베델약국,16830,"경기도 용인시 수지구 문인로 59 107호 (풍덕천동, 삼익상가)",031-276-0050,37.3323534,127.0966345
행복한약국,22135,인천광역시 미추홀구 미추홀대로722번길 6 (주안동),032-421-3868,37.461665,126.6806556
부원약국,50925,경상남도 김해시 호계로 411 101호 (부원동),055-327-7740,35.2272162,128.8849759
새봄약국,24376,강원도 춘천시 퇴계로105번길 5 (퇴계동),033-264-5482,37.8618287,127.7319754
기린약국,52649,경상남도 진주시 진양호로 91 평거정상빌딩 1층 (평거동),,35.1673727,128.0497225
혜성프라자약국,21377,"인천광역시 부평구 원적로 434 (산곡동, 혜성프라자111호,113호)",032-516-6881,37.503328,126.7146268
새서울약국,39294,경상북도 구미시 신시로 73 수성메디칼 101호 (형곡동),054-441-9771,36.1144377,128.3387054
매일약국,59041,전라남도 해남군 해남읍 중앙2로 150 (홍한의원 김정형외과 매일약국),537-1642,34.5663095,126.59449
이화햇살약국,26325,강원도 원주시 현충로58번길 28 1층 (태장동),,37.3612931,127.9573906
효성온누리약국,16919,"경기도 용인시 기흥구 구성로 110 104호 (언남동, 용구프라자)",031-285-1053,37.2931855,127.1209214
새연세약국,8627,서울특별시 금천구 독산로 87 1층 (시흥동),02-891-3700,37.4551368,126.9056483
미소약국,41935,대구광역시 중구 중앙대로 411 (동일동),053-252-2959,35.8698706,128.5935381
뉴송도약국,49269,"부산광역시 서구 충무대로 8 (암남동,기산비치타운1층 105-1호)",051-254-1283,35.0764184,129.0164834
경남약국,51147,"경상남도 창원시 의창구 창이대로309번길 7 (봉곡동, 중앙빌딩)",055-237-2474,35.246732,128.670848
광재약국,27703,충청북도 음성군 음성읍 중앙로 106-1 (),043-872-2216,36.9337802,127.6892978
샘밭약국,24205,강원도 춘천시 신북읍 신샘밭로 431 (신북읍),033-243-4019,37.9279552,127.7577673
새그린약국,5537,서울특별시 송파구 토성로 58 (풍납동),02-473-6688,37.5290315,127.1160973
세솔한약국,61980,광주광역시 서구 화운로126번길 7 1층 (화정동),062-362-1301,35.1507578,126.8787878
길약국,13925,경기도 안양시 동안구 비산로 21 자이파크몰 1층 102호 (비산동),031-443-4874,37.4000271,126.9326383
연산시장약국,47603,부산광역시 연제구 월드컵대로 17 (연산동),051-868-5523,35.1762328,129.0856689
365열린큰약국,13640,"경기도 성남시 수정구 위례광장로 104 위례 한화 오벨리스크 센트럴스퀘어 1층 1049,1050,1051호 (창곡동)",,37.4730526,127.1412642
엄마손약국,4715,서울특별시 성동구 왕십리로 327 1층 (하왕십리동),02-6953-2773,37.5623974,127.0332569
경희자연애한약국,5407,"서울특별시 강동구 양재대로81길 61 102호 (성내동, 올림픽파크플러스)",02-489-6681,37.5237858,127.1307852
오호약국,47540,부산광역시 연제구 중앙대로 1085 오오빌딩 1층 102호 (연산동),051-866-5599,35.184889,129.0803159
예쁜약국,16815,경기도 용인시 수지구 신봉2로 2 센트럴500 223호 (신봉동),031-893-0750,37.3232084,127.0780476
미소약국,11129,경기도 포천시 영중면 양문로 79 (),031-534-1232,37.9998361,127.2423677
원종센타약국,14427,경기도 부천시 소사로 799 (원종동),032-675-2663,37.5274058,126.804578
사랑약국,10071,경기도 김포시 김포한강9로 109 제1층 102호 (구래동),031-987-5775,37.6465636,126.6251821
휴플러스약국,46298,부산광역시 금정구 장전로 31-1 (장전동),051-512-8305,35.22846,129.0853266
세연약국,48062,부산광역시 해운대구 해운대로 365 101호 (우동),051-747-2268,35.1704318,129.1374368
늘푸른약국,16496,경기도 수원시 팔달구 중부대로223번길 65 (우만동),031-211-6688,37.2788132,127.0409823
삼성정문약국,6351,"서울특별시 강남구 일원로 95 109호 (일원동, 신영프라자)",3412-4416,37.485765,127.0834812
밝은약국,63070,제주특별자치도 제주시 우정로 69 1층 (외도일동),064-743-2577,33.4866506,126.4311095
유채약국,46525,부산광역시 북구 금곡대로303번길 22 정능빌딩 3층 302호 (화명동),051-365-0428,35.235738,129.0126499
스마일약국,8745,서울특별시 관악구 중앙길 5 1층 (봉천동),,37.4836303,126.9538376
드림약국,53253,경상남도 거제시 거제중앙로 1893 1층 (고현동),055-633-8810,34.8871362,128.6234085
늘푸른약국,47798,부산광역시 동래구 충렬대로 469 (안락동),051-927-0034,35.1953042,129.1094297
신세계온누리약국,50818,경상남도 김해시 활천로267번길 14 (삼방동),055-321-5964,35.2441472,128.9087589
365샘약국,7573,서울특별시 강서구 양천로 424 가양역 데시앙플렉스 지식산업센터 131호 (등촌동),02-2054-6949,37.5642277,126.847971
용약국,16668,경기도 수원시 권선구 곡반정로 160 라퍼스트 423-1호 (곡반정동),031-8019-7708,37.241706,127.0342029
평제약국,2478,서울특별시 동대문구 약령시로 51 (제기동),02-963-6919,37.5830158,127.0357828
천우약국,7250,서울특별시 영등포구 영등포로 231-1 1층 (영등포동5가),02-2677-1266,37.5197085,126.9072777
군자종로약국,4929,서울특별시 광진구 천호대로 561 (중곡동),3437-2202,37.5571308,127.0806809
다나약국,7382,서울특별시 영등포구 가마산로 439-1 (신길동),02-832-1205,37.5053613,126.9053876
주영온누리약국,7367,"서울특별시 영등포구 영신로 9 1층 (영등포동, 주영빌딩)",02-842-5051,37.5123874,126.9092015
고운우리약국,30062,세종특별자치시 마음로 264 고운프라자 107호 (고운동),044-417-6141,36.5193249,127.2346888
호호온누리약국,13807,경기도 과천시 중앙로 129 고려빌딩 3층 304호 (중앙동),02-507-8878,37.428317,126.9909779
광혜원한약국,16413,경기도 수원시 권선구 일월천로4번길 55 1층 (구운동),031-295-7535,37.282683,126.9752163
윤온누리약국,18144,경기도 오산시 밀머리로1번길 12-6 (원동),031-375-7100,37.1410472,127.0748705
대명드림약국,42484,대구광역시 남구 대명로 86 1층 (대명동),,35.8390449,128.5669708
제일약국,50408,경상남도 밀양시 무안면 사명로 496 (무안면),055-352-0056,35.4688217,128.651834
아름약국,16825,경기도 용인시 수지구 동천로 62 센트럴상가 1층 8호 (동천동),031-896-7871,37.3402999,127.0962065
팜플러스약국,55123,전라북도 전주시 완산구 평화로 115 (평화동2가),063-225-0771,35.787058,127.134338
행복약국,50554,경상남도 양산시 덕계로 20 (덕계동),055-363-1650,35.370147,129.1484437
종로약국,21393,인천광역시 부평구 부평대로 36-1 (부평동),032-514-8000,37.4947116,126.7230502
파란하늘약국,18302,"경기도 화성시 봉담읍 동화길 89 109,110호",031-227-6602,37.216698,126.9585985
100평 광장약국,11758,경기도 의정부시 동일로 732 금오동 근린생활시설 1층 102호 (금오동),,37.7519574,127.0492861
경희약국,44726,울산광역시 남구 번영로 109 106호 (달동),052-260-2672,35.53515,129.328588
하나약국,21927,"인천광역시 연수구 먼우금로188번길 12 이리옴3빌딩 106,107,108호 (연수동)",032-815-0153,37.4134271,126.6765279
중앙약국,36968,경상북도 문경시 중앙로 148 1층 (점촌동),054-555-4016,36.5977367,128.2014003
한림약국,5339,서울특별시 강동구 성안로 149 1층 (천호동),02-486-9743,37.5365899,127.1347213
아름약국,31116,충청남도 천안시 동남구 망향로 189 102호 (안서동),041-565-3777,36.840088,127.1741104
소망약국,37771,경상북도 포항시 남구 중흥로 82 (상도동),281-7100,36.0124205,129.3501278
21세기상계약국,1674,서울특별시 노원구 동일로 1548 (상계동),937-2288,37.6666795,127.0576424
천호바로약국,5328,서울특별시 강동구 올림픽로 654 삼영빌딩 1층 (천호동),02-470-1585,37.5398574,127.1240828
문학사랑약국,22238,인천광역시 미추홀구 소성로326번길 4 (문학동),032-432-5639,37.4373867,126.6832653
희망약국,25769,"강원도 동해시 천곡로 86-2 110호 (천곡동, 대륜빌딩)",033-535-0628,37.5228662,129.1150224
튼튼약국,44043,울산광역시 동구 방어진순환도로 771 (전하동),052-201-6777,35.5105663,129.4301704
참약국,31981,충청남도 서산시 시장6로 30-15 (동문동),041-666-0039,36.7823125,126.4587495
다온약국,58118,전라남도 화순군 화순읍 중앙로 69 103호,061-375-0503,35.0606453,126.9888898
참좋은약국,31125,충청남도 천안시 동남구 충절로 23-1 (신부동),,36.8169706,127.1586686
참사랑약국,41145,대구광역시 동구 동촌로 225 (방촌동),053-985-6622,35.8818815,128.6650785
정화약국,56191,전라북도 정읍시 충정로 70 (상동),063-533-7388,35.5600962,126.8691522
조은약국,10402,경기도 고양시 일산동구 중앙로1261번길 55 1층 105호 (장항동),031-926-3067,37.6575787,126.7708662
미래약국,21389,인천광역시 부평구 부평대로17번길 2 (부평동),032-527-8250,37.4931088,126.7227116
건강약국,26442,강원도 원주시 치악로 1789 (개운동),033-766-4583,37.342157,127.9551774
동해약국,49035,부산광역시 영도구 태종로 137 1층 (봉래동3가),051-416-3232,35.0922551,129.0441828
올약국,42674,대구광역시 달서구 장기로 193 1층 (본리동),053-522-8001,35.8433268,128.5393487
참약사 평화약국,48545,부산광역시 남구 양지골로 257 (감만동),,35.1192119,129.084386
봄봄약국,1073,서울특별시 강북구 도봉로 323 용신빌딩 102호 (수유동),02-998-8283,37.6371305,127.0242171
조아약국,48731,부산광역시 동구 중앙대로 284 1층 (초량동),,35.1217868,129.0436672
터미널약국,54934,"전라북도 전주시 덕진구 가리내로 70 (금암동, 전주고속버스터미널)",063-252-5780,35.8345597,127.1292062
송산봄약국,18550,경기도 화성시 송산면 송산포도로 103 (),031-356-3396,37.2140388,126.7373732
스타온누리약국,59543,전라남도 고흥군 고흥읍 터미널길 13 빅 리치타워 1층 105호,,34.6064799,127.281097
태연약국,15395,경기도 안산시 단원구 화랑로 160 단지내 상가 2층 208호 (초지동),031-402-3111,37.3234528,126.8057788
일로약국,58575,전라남도 무안군 일로읍 일로로 74-1 (),061-281-0722,34.8494048,126.4945924
한빛약국,10526,"경기도 고양시 덕양구 용현로 27 104호 (행신동, 행신프라자)",031-970-6192,37.6152314,126.8356424
성모약국,52550,경상남도 사천시 주공로 12-1 (벌리동),055-833-5667,34.9393465,128.0867204
양정약국,44260,울산광역시 북구 염포로 529 104호 (양정동),052-246-2522,35.5442675,129.3850905
사당미소약국,8807,서울특별시 관악구 과천대로 939 르메이에르강남타운2 3층 (남현동),02-586-8009,37.4743938,126.9814601
다모아약국,11473,경기도 양주시 옥정로 196 111호 (옥정동),031-866-4450,37.8189751,127.0921402
우리들약국,50427,경상남도 밀양시 중앙로 381-1 (내이동),055-356-2914,35.4956894,128.7510411
대학약국,3081,"서울특별시 종로구 창경궁로 162 1,2층 (원남동)",02-3672-3672,37.5768148,126.9974867
효성약국,52504,경상남도 사천시 곤양면 서삼로 8 (곤양면),055-852-6384,35.056645,127.9618776
염산종로약국,57066,전라남도 영광군 염산면 천년로 20-1 (),,35.2171474,126.3741659
봄에 핀 온누리 약국,55334,전라북도 완주군 삼례읍 삼봉중앙로 9 동원빌딩,063-262-8575,35.9219245,127.1237386
창현약국,7510,서울특별시 강서구 금낭화로 127 강서농협 1층 (방화동),02-2665-0045,37.5765521,126.812109
가나다약국,16649,경기도 수원시 권선구 매송고색로 714 (고색동),031-297-1717,37.2510983,126.9825649
늘좋은약국,63223,제주특별자치도 제주시 연삼로 414 1층 (이도이동),064-751-2277,33.4962716,126.5353153
으뜸온누리약국,21650,"인천광역시 남동구 논현로 69 하늘마을휴먼시아3단지 상가비동 104,203,204호 (논현동)",032-431-1125,37.4020292,126.7141395
굿모닝약국,12750,경기도 광주시 벌원길 63-3 (탄벌동),031-764-7178,37.4160621,127.2479626
철산하늘약국,14237,경기도 광명시 철산로 24 다인빌딩 2층 201-1호 (철산동),02-2060-0110,37.4760099,126.8690111
하나약국,34411,대전광역시 대덕구 계족산로 5 (중리동),042-638-1919,36.3617876,127.4321102
아름약국,17596,경기도 안성시 강변남로 22 (도기동),031-672-4326,37.0009435,127.2697333
서초늘봄약국,6655,"서울특별시 서초구 서초대로38길 12 지하2층 (서초동, 마제스타시티,힐스테이트서리풀)",,37.4902698,127.0051245
경주프라자약국,38084,경상북도 경주시 황성로 25 (황성동),054-772-3695,35.8654756,129.214149
관산 오약국,59347,전라남도 장흥군 관산읍 관산로 82 (),061-867-3555,34.5626422,126.938886
튼튼약국,16954,"경기도 용인시 기흥구 흥덕2로87번길 18 c동 303호 (영덕동, 이씨티)",031-217-7776,37.2758482,127.0718775
천일온누리약국,57788,전라남도 광양시 중마중앙로 79 (중동),061-792-4441,34.9372841,127.6977316
상하약국,56410,전라북도 고창군 상하면 상하로 68 하나의원,063-561-1894,35.444107,126.4931446
프랜드팜남대문약국,55056,전라북도 전주시 완산구 용머리로 57 (효자동1가),063-222-2106,35.8069429,127.1163364
해양약국,61623,광주광역시 남구 대남대로 370 (월산동),062-364-9669,35.1443911,126.8916361
힘나는약국,34679,대전광역시 동구 신기로101번길 21 (가오동),042-283-5025,36.3107994,127.4559284
건강제이드약국,49205,부산광역시 서구 동대로 20 1층 (동대신동3가),051-254-9872,35.1190352,129.0179251
강성약국,11755,경기도 의정부시 금오로 112 (금오동),031-847-2391,37.756755,127.0775526
유성대학약국,34084,대전광역시 유성구 북유성대로 89 (지족동),,36.3748364,127.3256269
별약국,4596,서울특별시 중구 동호로 163 3층 302호 (신당동),02-2233-5704,37.5529638,127.0117354
현샘약국,42612,대구광역시 달서구 달구벌대로251길 33 1층 (이곡동),053-585-3606,35.8551477,128.5046919
온약국,21673,인천광역시 남동구 소래역로 20 104호 (논현동),032-433-9594,37.3992223,126.7363497
바다약국,63566,제주특별자치도 서귀포시 신서귀로97번길 51 바다약국 101호호 (강정동),064-738-1598,33.2539739,126.5069911
튼튼약국,18136,경기도 오산시 오산로 305 (오산동),031-372-6634,37.1541958,127.0684407
보배약국,18478,경기도 화성시 동탄대로 551-16 동탄역 푸르지오시티 B동 328호 (오산동),070-4647-1530,37.2031679,127.0968913
행복가득한약국,10524,경기도 고양시 덕양구 무원로 62 1층 (행신동),031-972-6985,37.6184303,126.8325519
다정약국,17051,경기도 용인시 처인구 백옥대로 1102-1 1층 (김량장동),031-333-5879,37.2338949,127.2092988
코코약국,12223,경기도 남양주시 평내로29번길 41 메인프라자 206-1호 (평내동),031-594-0410,37.645415,127.2349877
봄봄약국,61755,광주광역시 남구 입하길 12 1층 (송하동),062-652-3246,35.1076825,126.8775007
평화약국,55772,전라북도 남원시 숲정이2길 15 (죽항동),063-634-7770,35.4094323,127.3881732
초원약국,3464,서울특별시 은평구 은평로10길 4 (응암동),02-6326-4986,37.5999831,126.9228255
해바라기약국,6252,서울특별시 강남구 강남대로 320 1층 (역삼동),02-552-5679,37.4918602,127.031063
메디칼우리약국,1845,서울특별시 노원구 동일로 1044 1층 (공릉동),971-6040,37.6233742,127.0740647
상봉햇살약국,2169,서울특별시 중랑구 상봉로 118 E-마트 상봉점 4층 (망우동),02-434-8678,37.5965068,127.0935977
명문온누리약국,2518,서울특별시 동대문구 사가정로 225 1층 (장안동),02-2212-8881,37.5789421,127.0701566
손약국,50629,경상남도 양산시 양산역6길 3 113호 (중부동),055-386-2022,35.33781,129.0266014
종로태양약국,3130,서울특별시 종로구 종로 191 1층 (종로4가),02-766-1777,37.5711058,126.9990105
검단보령약국,22865,"인천광역시 서구 원당대로 1039 태경타워 105,106호 (원당동)",032-565-0022,37.5938029,126.7163342
마루약국,7794,서울특별시 강서구 강서로 399 마곡하이마루 210호 (마곡동),02-3663-3563,37.5612908,126.838664
일신약국,50595,경상남도 양산시 물금읍 오봉로 195 (물금읍),055-363-3008,35.3338356,129.0087833
상무제일약국,61962,광주광역시 서구 치평로 30 1층 (치평동),062-513-0045,35.1499484,126.8476667
코리아약국,6325,서울특별시 강남구 선릉로 34 1층 (개포동),02-572-6123,37.4828398,127.060745
대한약국,34838,대전광역시 중구 중앙로 129 (선화동),042-252-6250,36.3281857,127.4240231
정약국,57950,전라남도 순천시 이수로 305 1층 (조례동),061-726-1233,34.9533732,127.5172374
과천 플러스 약국,13807,경기도 과천시 관문로 92 힐스테이트 과천중앙 B동 124호 (중앙동),02-6407-1358,37.4297486,126.9904189
참사랑약국,18428,"경기도 화성시 10용사로 316 101호 (능동, 다건빌딩)",031-8003-3553,37.1992302,127.052448
아이튼튼약국,18478,"경기도 화성시 동탄대로 469-12 2층 2057호 (오산동, 동탄역 린스트라우스)",070-7543-8809,37.1962985,127.0974953
돌곶이온누리약국,2787,"서울특별시 성북구 화랑로 248 장위뉴타워 102호, 102-1호 (석관동)",02-967-5555,37.6104155,127.0569262
윤슬약국,21574,인천광역시 남동구 인하로507번길 4 벽성빌딩 102호 (구월동),427-9932,37.4434516,126.7032138
은혜약국,5616,서울특별시 송파구 백제고분로39길 10-20 101호 (석촌동),02-420-2282,37.5056453,127.1059045
조은약국,25751,강원도 동해시 하평로 14 (평릉동),033-532-0299,37.5309016,129.1064137
주안약국,22140,인천광역시 미추홀구 미추홀대로 704 1층 (주안동),032-422-4279,37.460156,126.6804073
아빠약국,61754,광주광역시 남구 효천중앙로 64 블루타워 102호 (임암동),062-672-1694,35.102112,126.8755804
혜명한약국,63188,제주특별자치도 제주시 서광로2길 11 1층 (오라일동),064-759-1522,33.4991065,126.5130287
가산행운약국,8517,서울특별시 금천구 디지털로10길 78 126호 (가산동),02-6230-5755,37.4745451,126.8897367
새로이약국,21998,인천광역시 연수구 인천타워대로132번길 34 103호 (송도동),032-859-8834,37.386364,126.6439449
셀메드홈케어굿모닝약국,13497,"경기도 성남시 분당구 야탑로69번길 3 101~5,204호 (야탑동, 강남프라자)",707-1661,37.4100921,127.1263732
소망온누리약국,24343,강원도 춘천시 공지로 242 1층 (효자동),033-264-8577,37.8639941,127.7372527
기린약국,10585,경기도 고양시 덕양구 지축로 86 103호 (지축동),02-371-2933,37.6487818,126.9174088
슬기로운약국,47300,"부산광역시 부산진구 중앙대로 664 일부 101호 (부전동, 이랜드 PEER 서면)",051-808-7977,35.15199,129.0596071
국제약국,2623,서울특별시 동대문구 답십리로 248 1층 (장안동),02-2245-6384,37.5724752,127.0677715
목동메디약국,7786,서울특별시 강서구 곰달래로 272 1층 103호 (화곡동),02-2062-0091,37.5321866,126.8631828
드림약국,37587,경상북도 포항시 북구 장량로 79 (양덕동),054-231-0947,36.082456,129.3890986
가까운편한약국,46985,부산광역시 사상구 학감대로 226 1층 (감전동),051-323-3737,35.1510507,128.9900927
비전약국,35402,대전광역시 서구 계백로 1440 1층 (도마동),042-581-1151,36.3133029,127.3811345
광주약국,61400,광주광역시 동구 서암대로 318 1층 (계림동),062-512-1415,35.1648516,126.9181452
내동우리약국,35285,대전광역시 서구 동서대로 981 1층 (내동),042-534-3176,36.3343228,127.3715057
메디팜태평양약국,58700,전라남도 목포시 영산로 320 (용당동),061-272-3850,34.8054087,126.4004855
참좋은약국,30034,세종특별자치시 조치원읍 대첩로 17 17,044-868-8687,36.5953792,127.293962
하늘빛약국,13256,"경기도 성남시 중원구 광명로 176 상가동 1층 106호 (중앙동, 신흥역하늘채랜더스원아파트)",031-733-3507,37.4390817,127.1477057
우리약국,44034,울산광역시 동구 전하로 2 (전하동),052-234-1256,35.5123731,129.4305279
중앙약국,52041,경상남도 함안군 가야읍 방목1길 16-27 (가야읍),055-583-2462,35.2775808,128.4052984
더본약국,51320,"경상남도 창원시 마산회원구 양덕남8길 12 (양덕동, 수산아파트)",055-294-7770,35.2226081,128.586947
다사랑약국,21565,인천광역시 남동구 독점로3번길 10-24 1층일부호 (구월동),032-473-2009,37.4510367,126.7104375
이룸약국,12113,경기도 남양주시 별내중앙로 24 405-1호 (별내동),070-4212-7272,37.6454567,127.1262479
오정온누리약국,14442,"경기도 부천시 오정로 247 103호 (오정동, 썬프라자)",032-677-8275,37.5295367,126.7855637
황약국,15806,경기도 군포시 군포로753번길 46 (산본동),031-394-0499,37.3712078,126.9392562
희망찬약국,21545,인천광역시 남동구 남동대로 900 (간석동),442-2252,37.4627226,126.7085617
이조약국,57941,전라남도 순천시 서문성터길 1 (행동),061-752-5767,34.9570998,127.483488
독일약국,17023,경기도 용인시 처인구 포곡읍 전대로78번길 3 (포곡읍),031-333-2920,37.2852346,127.2172301
우리들약국,14996,경기도 시흥시 장현능곡로 9 103호 (장곡동),031-000-0000,37.3730211,126.7915479
시민공원약국,47192,"부산광역시 부산진구 시민공원로 31 2층 (부암동, 이마트트레이더스서면점)",051-803-3336,35.1638954,129.0525896
낙원종합약국,56104,전라북도 정읍시 신태인읍 신태인중앙로 23 1층,063-571-8275,35.6890791,126.8874159
송신약국,55085,"전라북도 전주시 완산구 강변로 106 107동 103호 (삼천동1가, 삼천하이츠A상가)",063-226-9988,35.8008411,127.1131653
해뜨는약국,61062,광주광역시 북구 설죽로 351 1층 (매곡동),062-575-1725,35.1908419,126.8989068
새빛약국,34305,"대전광역시 대덕구 대덕대로 1591-1 101, 102호 (석봉동, 로하스빌딩)",042-862-1994,36.4505922,127.4247092
주차편한약국,3311,"서울특별시 은평구 통일로 1030 은평헤스티아 지하1층 103,104호 (진관동)",02-356-7660,37.6341902,126.9176679
정든약국,13517,경기도 성남시 분당구 야탑로 102 뉴젠빌원룸텔 2층 214호 (야탑동),031-702-3315,37.409596,127.1301328
밝은약국,12011,경기도 남양주시 진접읍 장현로 122 (진접읍),031-574-2040,37.7201374,127.1849478
튼튼약국,27666,충청북도 음성군 대소면 대금로 468 (),043-881-2116,36.9682631,127.4907229
다원약국,18467,경기도 화성시 동탄영천로 81-5 1층 (영천동),031-372-0322,37.2096788,127.102974
동화약국,49380,부산광역시 사하구 낙동대로 237 2층 (괴정동),051-201-5336,35.0992947,128.9911562
암사조은온누리약국,5236,"서울특별시 강동구 고덕로 133 상가동 511호 (암사동, 강동롯데캐슬퍼스트아파트)",426-3666,37.5552527,127.1403474
도담약국,61074,광주광역시 북구 하서로 393-8 (양산동),062-262-6000,35.2104151,126.8731999
한아름온누리약국,21312,"인천광역시 부평구 세월천로 16 101호 (청천동, 대우2차상가)",032-524-5800,37.5146664,126.7083807
행복약국,6942,"서울특별시 동작구 등용로 115 101호 (대방동, 엘리시아빌딩)",02-822-9095,37.5114623,126.9317563
삼산약국,21344,"인천광역시 부평구 체육관로 40 107호 (삼산동, 신영프라자)",032-511-8770,37.5082494,126.7361446
한들약국,50039,경상남도 함양군 함양읍 용평1길 3 (함양읍),055-963-3298,35.520617,127.7290525
한솔약국,34832,대전광역시 중구 중앙로 149 (은행동),255-2522,36.3290704,127.4260245
벧엘약국,21561,"인천광역시 남동구 구월로 212 216호 (구월동, 힐캐슬프라자)",032-462-9934,37.4560189,126.7140509
주엽온누리약국,10386,경기도 고양시 일산서구 중앙로 1415 CITY2000빌딩 1층 105호 (주엽동),031-8076-5077,37.6691851,126.7625387
파라곤1층약국,12912,경기도 하남시 미사강변동로 100-1 미사역 파라곤 스퀘어 1027호 (망월동),031-795-5973,37.5639612,127.1936001
수영우리약국,48228,부산광역시 수영구 연수로 419 1층 (수영동),051-753-2851,35.1678272,129.1148216
100세약국,7223,서울특별시 영등포구 양평로 24 (당산동6가),02-2678-8217,37.5332486,126.903739
필리아약국,13389,경기도 성남시 중원구 둔촌대로 283 (하대원동),031-759-9259,37.4297639,127.1494604
대한약국,21034,인천광역시 계양구 장제로875번길 1 (임학동),032-556-8575,37.5452442,126.7383748
정다운 약국,26130,강원도 정선군 정선읍 봉양6길 15-1 (),033-563-9381,37.3790645,128.6635911
행복한약국,28767,충청북도 청주시 상당구 중흥로 149-1 1층 (용암동),043-214-9747,36.6172927,127.5103775
쉐르빌약국,7213,서울특별시 영등포구 당산로45길 1 (당산동5가),02-2672-3277,37.5332573,126.9005069
바로약국,26428,강원도 원주시 원일로 120 (중앙동),033-747-8366,37.3503162,127.9484763
가로수약국,28382,충청북도 청주시 흥덕구 서현로 60 140호 (가경동),043-231-0919,36.6175121,127.4286308
하나약국,31982,충청남도 서산시 고운로 157 1층 (동문동),041-681-7210,36.7836391,126.4528886
하경약국,55033,전라북도 전주시 완산구 관선1길 7 1층 (남노송동),063-277-2670,35.8196979,127.1544511
참조은약국,10341,"경기도 고양시 일산서구 고양대로 691 2층 (일산동, 한더빌딩)",031-975-1777,37.6839777,126.77307
길약국,39228,경상북도 구미시 구미중앙로 144 1층 (원평동),054-457-1549,36.1258909,128.3376849
만리포약국,32120,충청남도 태안군 소원면 신덕길 10 (),041-672-4189,36.7587347,126.1947329
유일약국,41535,대구광역시 북구 대학로 143 (산격동),942-0061,35.8968007,128.6136267
순창온누리약국,56041,전라북도 순창군 순창읍 순창로 228 (),063-653-4144,35.3753334,127.1433998
이층은약국,6599,"서울특별시 서초구 서초중앙로 230 2층 208호 (반포동, 동화반포프라자상가)",02-533-2440,37.5021689,127.0120781
호약국,15801,경기도 군포시 고산로 701 1층 일부호 (산본동),031-398-1117,37.3724584,126.935814
천사약국,34942,대전광역시 중구 대흥로66번길 19 (대흥동),042-252-4080,36.3230197,127.4209817
이화햇살약국,7803,서울특별시 강서구 공항대로 261 발산파크프라자 113호 (마곡동),02-3665-3335,37.5591532,126.836521
메디치약국,34121,대전광역시 유성구 대덕대로 582 옥토빌딩 104호 (도룡동),042-862-0070,36.3849308,127.37898
현대메디칼약국,22190,인천광역시 미추홀구 낙섬서로 4 (용현동),032-889-1891,37.4500145,126.633686
참약사새봄약국,44236,울산광역시 북구 화산로 109 1층 110호 (송정동),070-4010-5917,35.6017933,129.3652805
본약국,11918,경기도 구리시 건원대로99번길 134 (인창동),031-565-7377,37.6044648,127.139325
바른길약국,61243,광주광역시 북구 임동로 6 101호 (임동),062-522-9700,35.1607119,126.8967075
동탄공원약국,18505,경기도 화성시 동탄순환대로 127-27 B109호 (산척동),070-4833-8901,37.1681658,127.1072462
감계튼튼약국,51112,경상남도 창원시 의창구 북면 감계로110번길 54-15 부영빌딩 1층 104호,,35.3015721,128.5943145
신세기약국,62314,광주광역시 광산구 하남대로 292 (운남동),062-955-2111,35.1787498,126.8255198
햇살약국,61727,광주광역시 남구 서문대로 665 1층 103호 (진월동),062-674-1245,35.1190301,126.89862
적십자약국,12205,경기도 남양주시 와부읍 수레로9번길 29-1 (),031-577-1495,37.5892018,127.2142353
수약국,10019,경기도 김포시 통진읍 김포대로2244번길 20 303호 (마송프라자),031-988-8666,37.6909308,126.5975881
민우약국,15805,경기도 군포시 군포로761번길 20 (산본동),031-393-5540,37.3728066,126.94133
보안당약국,52319,경상남도 하동군 횡천면 문화1길 1 1,055-883-7105,35.1092726,127.8109634
세화약국,39828,경상북도 칠곡군 약목면 관호7길 42 (),070-4408-9022,36.003994,128.3842227
모범약국,12646,경기도 여주시 여주남로 328 (연라동),886-3308,37.2621993,127.6015074
호정약국,4311,"서울특별시 용산구 효창원로 227 근린3상가동 2층 201호 (효창동, 용산 데시앙 포레)",02-712-1276,37.5473631,126.9620096
만약국,6187,서울특별시 강남구 도곡로99길 31 지하1층 (대치동),,37.5025953,127.0650459
튼튼약국,5092,서울특별시 광진구 뚝섬로 590 아주빌딩 1층 (자양동),02-456-1139,37.5331387,127.0753243
이화약국,58255,전라남도 나주시 나주로 190 (중앙동),061-333-6789,35.0338497,126.721351
남도약국,59038,전라남도 해남군 해남읍 해남로 8 (해남읍),061-533-2525,34.5706417,126.6079625
금광프라자약국,13177,경기도 성남시 중원구 광명로 331 1층 (금광동),031-741-6220,37.4457208,127.1626342
동아약국,11145,경기도 포천시 중앙로 119 (신읍동),031-535-2417,37.8970922,127.2027566
우리약국,61709,광주광역시 남구 서문대로 692 (진월동),062-675-2208,35.1212173,126.8990242
하나약국,17359,경기도 이천시 안흥로 70 1층 (갈산동),031-634-9399,37.284094,127.4553125
태화약국,51680,경상남도 창원시 진해구 충장로 128-1 (충무동),055-543-8022,35.1518895,128.6660474
하나약국,61697,광주광역시 남구 봉선로 2 1층 (주월동),062-653-7581,35.1326136,126.9018666
연우약국,62339,광주광역시 광산구 손재로110번길 46 1층 (산정동),062-956-5050,35.1759927,126.7994697
행복한미래약국,41265,"대구광역시 동구 송라로11길 39 (신천동, 신천휴먼시아6단지아파트 상가103호)",053-425-1237,35.8711923,128.6170349
시온약국,10861,경기도 파주시 탄현면 하늘소로 106 (탄현면),031-948-7561,37.7744376,126.7016318
조은약국,58416,전라남도 영암군 영암읍 동문안1길 7-8 (),061-472-0144,34.8002009,126.6986368
호수약국,11474,경기도 양주시 옥정동로 193 (옥정동),031-867-5111,37.8241365,127.0984808
가까운약국,47736,부산광역시 동래구 충렬대로181번길 17 (명륜동),051-554-2674,35.2045543,129.0798053
오늘약국,41777,대구광역시 서구 국채보상로 223 대원빌딩 106호 (평리동),053-557-5577,35.8708157,128.5553458
밝은별약국,22363,인천광역시 중구 신도시북로 89 103호 (운서동),032-751-0904,37.5007878,126.4893255
해맑은약국,57949,전라남도 순천시 이수로 321 1층 (조례동),061-726-8878,34.9540717,127.5190029
햇님약국,46278,부산광역시 금정구 중앙대로1685번길 15 1층 (부곡동),051-582-6119,35.2348348,129.0909076
로타리약국,47351,부산광역시 부산진구 중앙대로 613 (범천동),051-633-9145,35.1475615,129.0586309
조치원약국,30027,세종특별자치시 조치원읍 새내로 98 98,044-865-3873,36.6005707,127.2985711
삼성강남약국,6351,서울특별시 강남구 일원로 95 107호 (일원동),02-6959-0293,37.485765,127.0834812
한누리약국,3170,서울특별시 종로구 새문안로5가길 33 한누리빌딩 1층 (내자동),02-736-7980,37.5748436,126.9729452
메가약국,32983,충청남도 논산시 중앙로 255 116호 (내동),041-732-0280,36.1898965,127.0990133
굿모닝약국,11690,경기도 의정부시 평화로 613 용호빌딩 1층 (의정부동),031-842-1043,37.7466728,127.0454717
감일드림약국,13003,"경기도 하남시 감일백제로 169 현대타워 1층 115,116호 (감이동)",070-8869-5850,37.5073264,127.1549129
강남참약국,11473,경기도 양주시 옥정로 226 제일타워 1층 103호 (옥정동),031-928-7308,37.8217516,127.0921278
참약사도담약국,5072,서울특별시 광진구 아차산로 208 상록빌딩 1층 일부호 (자양동),02-6953-6637,37.541061,127.0664893
프라자약국,8750,"서울특별시 관악구 봉천로 391 115호 (봉천동, 두산아파트에이상가)",02-3285-7294,37.4834822,126.9432631
열린약국,47864,부산광역시 동래구 사직북로19번길 20 사직동 메디컬센터 1층 (사직동),,35.1975474,129.05936
아름약국,4619,서울특별시 중구 퇴계로46길 35 1층 (묵정동),02-2273-0110,37.560928,126.9996156
용원어시장약국,51610,경상남도 창원시 진해구 용원동로 231 1층 120호 (용원동),055-546-7893,35.0935879,128.8185985
모두온누리약국,8739,서울특별시 관악구 남부순환로 1869 1층 (봉천동),875-5955,37.4798287,126.9575645
데일리약국,16836,경기도 용인시 수지구 풍덕천로 113 B층 02호 (풍덕천동),,37.3225625,127.0942539
백약국,62271,광주광역시 광산구 남부대길 10 공학관(복지관) (월계동),062-972-7651,35.2086093,126.8421989
마음약국,44223,울산광역시 북구 괴정1길 114 1층 (매곡동),052-933-0810,35.6425369,129.3574932
희망약국,11034,경기도 연천군 전곡읍 전곡로 146 (전곡읍),031-832-0399,38.0252227,127.0689162
대우약국,53320,경상남도 거제시 장승포로1길 4 (장승포동),055-681-2695,34.8679852,128.7255521
금호약국,50954,경상남도 김해시 함박로101번길 23 (외동),055-336-3680,35.234243,128.865325
굿모닝약국,10500,"경기도 고양시 덕양구 화중로 76 406호 (화정동, 대감빌딩)",031-938-9386,37.6339036,126.8311696
수성약국,50423,경상남도 밀양시 북성로 11-10 (내이동),055-356-4356,35.4990925,128.7439732
송백약국,50414,경상남도 밀양시 산내면 산내로 345 (),055-352-6355,35.5863076,128.8812774
부부약국,57643,전라남도 구례군 구례읍 북문길 4 (구례읍),061-782-2041,35.2110222,127.4650942
조아약국,35250,대전광역시 서구 둔산로 214-1 (둔산동),042-485-6920,36.3510343,127.3976881
경성온누리약국,51762,경상남도 창원시 마산합포구 문화북1길 25 (두월동1가),055-242-4212,35.1879459,128.5614308
역전약국,57962,전라남도 순천시 풍덕주택길 10 (조곡동),061-743-2387,34.944728,127.5019403
성심약국,44698,울산광역시 남구 삼산중로128번길 4 1층 (삼산동),052-275-0331,35.5448335,129.3361602
한일약국,58722,전라남도 목포시 호남로 71 (호남동),061-244-2244,34.7941709,126.3865237
수정약국,58752,전라남도 목포시 해안로 283 (동명동),061-243-3894,34.7886983,126.3914166
온누리부부약국,57993,전라남도 순천시 남산로 144 (풍덕동),061-742-1025,34.9403596,127.5040375
은혜약국,6349,"서울특별시 강남구 밤고개로1길 10 2층 220-2호 (수서동, 수서현대벤쳐빌)",02-6289-8767,37.4880245,127.1018445
종로5가약국,22179,인천광역시 미추홀구 인주대로 131 1층 (용현동),032-888-9983,37.4566286,126.6517509
드림약국,12621,경기도 여주시 여흥로 123 (홍문동),,37.2957218,127.6371726
태양약국,8269,서울특별시 구로구 경인로 191 (오류동),02-2685-1017,37.4956425,126.8423266
온정약국,14323,경기도 광명시 기아로 113 정문 경비동 1층 (소하동),02-808-1005,37.4402908,126.8905604
대한온누리약국,13486,"경기도 성남시 분당구 판교로255번길 9-22 138호 (삼평동, 우림 W-CITY)",031-628-7775,37.4040238,127.1000896
건강한약국,10374,"경기도 고양시 일산서구 일산로 526 1층 (일산동, 진송빌딩)",031-916-8645,37.6772811,126.7695985
세종옵티마약국,16859,경기도 용인시 수지구 수지로 62 (상현동),031-261-8027,37.3084377,127.0761904
참조은약국,16921,"경기도 용인시 기흥구 용구대로 2398 (마북동, 연원마을벽산아파트)",031-282-7582,37.3003072,127.1072867
로데오약국,10915,경기도 파주시 금릉역로 84 청원센트럴타워 101호 (금촌동),031-943-6253,37.7521117,126.765954
유한약국,58802,전라남도 신안군 임자면 임자로 146 (임자면),061-275-8288,35.0864667,126.1071864
성남약국,58706,전라남도 목포시 용당로 197 (용당동),061-276-5928,34.8046035,126.3984016
한마음약국,58664,전라남도 목포시 백년대로 331-1 (상동),061-284-1820,34.8055906,126.4234796
가나약국,58651,전라남도 목포시 영산로 343 1층 (용당동),061-279-6500,34.8062438,126.4028925
구세약국,58643,전라남도 목포시 영산로 485 (상동),061-273-0051,34.8093958,126.4166463
전일약국,58714,전라남도 목포시 청호로 153 (산정동),061-273-7575,34.804744,126.3748653
삼호약국,58458,전라남도 영암군 삼호읍 삼호중앙로 164 (),061-464-3570,34.7452899,126.4687232
동산온누리약국,15563,경기도 안산시 상록구 선암로 39 1층 (본오동),031-419-1603,37.2888279,126.8632592
행복약국,21022,"인천광역시 계양구 장제로 1004 107호 (박촌동, 계양한양수자인)",032-552-2050,37.5547854,126.7463043
조약국,58634,전라남도 목포시 양을로 145 (산정동),061-276-7887,34.8095471,126.3862765
대웅약국,58663,전라남도 목포시 옥암로 106-1 (옥암동),061-283-7001,34.8086129,126.4261277
신광약국,59726,전라남도 여수시 동문로 101-1 (공화동),061-664-7877,34.7457566,127.7424984
다정한약국,7770,서울특별시 강서구 강서로 59 102호 (화곡동),02-2603-8669,37.5328264,126.8457244
로타리약국,59721,전라남도 여수시 여서로 164-1 (여서동),061-652-0131,34.7480041,127.7000508
다산약국,59677,전라남도 여수시 시청로 52 (학동),061-681-5832,34.7661041,127.6631117
남산약국,59762,전라남도 여수시 신월로 712-1 (봉산동),061-642-0532,34.7340012,127.7199183
여수진남약국,59718,전라남도 여수시 좌수영로 47-1 (광무동),061-642-8356~6,34.7447121,127.7281528
중앙약국,57956,전라남도 순천시 중앙로 82 (장천동),061-744-0894,34.9528297,127.4841212
녹십자약국,58863,전라남도 신안군 흑산면 예리1길 68-4 (흑산면),061-275-8600,34.6845328,125.4443382
남해약국,59671,전라남도 여수시 쌍봉로 27-1 (학동),061-681-4055,34.7667931,127.6590936
동아약국,57959,전라남도 순천시 팔마로 12-1 (장천동),061-744-2230,34.946533,127.489755
승주동아약국,57908,전라남도 순천시 승주읍 승주로 706 (승주읍),061-753-1665,35.0138062,127.3868292
온누리보민당약국,61728,"광주광역시 남구 광복마을4길 9-1 101호 (진월동, 한신2차상가)",062-671-5001,35.1203207,126.8973422
승주약국,57931,전라남도 순천시 순광로 209 (조례동),061-722-9779,34.9635939,127.5411567
세명약국,57941,전라남도 순천시 호남길 3 (행동),061-752-3334,34.9569146,127.4837284
전남약국,57933,전라남도 순천시 비봉2길 7 (조례동),061-722-2210,34.971883,127.5212247
메디팜프라자약국,57967,전라남도 순천시 연향중앙상가길 27 (연향동),061-721-1818,34.9512233,127.5201042
아랫장약국,57959,전라남도 순천시 팔마로 48 1층 (인제동),061-741-2896,34.9462286,127.493522
온누리백제약국,58255,전라남도 나주시 동점문길 5 (중앙동),061-334-0221,35.0344452,126.7221334
건강약국,59232,전라남도 강진군 강진읍 영랑로3길 29-1 (강진읍),061-434-3309,34.6396354,126.771169
광제당약국,59058,전라남도 해남군 현산면 현산북평로 106 (광제당약국),061-533-8875,34.4581653,126.5533752
신약국,59558,전라남도 고흥군 도양읍 비봉로 153 (도양읍),061-842-2370,34.5274282,127.1351131
중앙약국,59537,전라남도 고흥군 고흥읍 학교길 66 (고흥읍),061-832-2167,34.6085041,127.2885787
대한약국,61661,광주광역시 남구 양림로 39-1 (양림동),062-676-0351,35.1370657,126.9133509
인애약국,62274,광주광역시 광산구 첨단중앙로182번길 16 (쌍암동),062-974-2060,35.2217265,126.84304
부부약국,59543,전라남도 고흥군 고흥읍 고흥로 1754 (고흥읍),061-835-7344,34.607384,127.28595
소망약국,58738,전라남도 목포시 용당로 53 (산정동),061-242-7588,34.7924049,126.4018737
새롬약국,57043,전라남도 영광군 영광읍 옥당로 150 (영광읍),061-351-0656,35.2754621,126.5016555
여수중앙약국,59736,전라남도 여수시 중앙로 61-2 (교동),061-662-7575,34.7402983,127.734498
광장약국,61664,광주광역시 남구 양림로 20 (양림동),062-651-7851,35.1356561,126.9118934
동민약국,62225,"광주광역시 광산구 장신로 82 106호 (장덕동, 보강빌딩)",062-956-7525,35.1904601,126.818775
옵티마장수약국,59552,전라남도 고흥군 도양읍 차경구렁목길 225 (도양읍),061-844-3031,34.545672,127.1449868
한겨레약국,59229,전라남도 강진군 강진읍 연지길 19 (),061-434-0568,34.6409325,126.768961
소망약국,61728,광주광역시 남구 금당로 30 (진월동),062-675-7492,35.1195276,126.8963251
약손약국,62272,광주광역시 광산구 첨단월봉로 98 (산월동),062-972-0072,35.2064079,126.8492648
대명약국,58290,전라남도 나주시 공산면 공산로 104 (),061-336-7300,34.9415586,126.6102333
미래 온누리 약국,57344,전라남도 담양군 담양읍 지침3길 5 (),061-381-7075,35.3158362,126.9840251
참약국,57340,전라남도 담양군 담양읍 객사2길 10 (담양읍),061-383-2332,35.3224876,126.9827062
지원약국,61462,광주광역시 동구 학소로 134 (학동),062-227-0872,35.1314774,126.9322943
푸른약국,61972,광주광역시 서구 화운로199번길 28 1층 (내방동),062-374-0080,35.1569933,126.8737719
연세약국,58637,전라남도 목포시 원산중앙로 59 (산정동),061-272-7222,34.8101073,126.3780134
법원약국,6645,서울특별시 서초구 서초대로 270 서보빌딩 1층 2호 (서초동),02-522-4312,37.4926697,127.011376
제일건강약국,22139,인천광역시 미추홀구 경인로 291 1층 (도화동),032-873-7776,37.4610219,126.6735796
소망약국,59655,전라남도 여수시 소라면 죽림로 15 (),061-691-8300,34.762314,127.6395937
횃불약국,59004,전라남도 해남군 문내면 동영길 29-4 (문내면),061-535-9245,34.5975493,126.3114252
금호스타약국,62007,광주광역시 서구 금화로 71 미미빌딩 1층 (금호동),062-383-8255,35.1324528,126.8565427
해남온누리약국,59027,전라남도 해남군 해남읍 중앙1로 2-14 103호,061-535-7506,34.5718093,126.607585
미지원약국,62007,광주광역시 서구 금화로 59 (금호동),062-385-0220,35.1322658,126.8554272
스타약국,58011,전라남도 순천시 해룡면 향매로 99 SM빌딩 1층,,34.9335454,127.5502658
백림약국,61164,광주광역시 북구 필문대로 85 (풍향동),062-263-0994,35.162488,126.9287142
광주약국,58120,전라남도 화순군 화순읍 자치샘로 19 (화순읍),061-374-2650,35.0625999,126.9834496
종로김약국,12036,경기도 남양주시 오남읍 진건오남로 809 지오빌딩 103~104호,070-4902-3775,37.6987309,127.2021168
에스케이약국,2532,"서울특별시 동대문구 사가정로 148 222-1호 (전농동, SK아파트상가)",02-2214-4783,37.5769111,127.0605491
혁신튼튼약국,55365,전라북도 완주군 이서면 기지로 35 (),063-228-1600,35.8387068,127.0559407
복약국,36743,경상북도 안동시 경북대로 171 1층 (수상동),054-858-0011,36.5472892,128.7014904
진주약국,12040,경기도 남양주시 오남읍 진건오남로 629-1 143호 (진주상가),031-575-4974,37.6892864,127.2117424
푸른약국,58418,전라남도 영암군 영암읍 동문로 8 (영암읍),061-471-7070,34.7967603,126.7027441
서울약국,57344,전라남도 담양군 담양읍 죽녹원로 53 (담양읍),061-381-2263,35.3197085,126.9849691
한마음약국,59431,전라남도 보성군 벌교읍 남하로 8 (벌교읍),061-858-5666,34.8343547,127.3446305
다나은약국,41599,대구광역시 북구 내곡로 38-6 2층 일부 (사수동),053-324-6288,35.8989335,128.5106448
새약국,59440,전라남도 보성군 조성면 조성로 103 (조성면),061-857-9055,34.8076417,127.2460174
보일약국,59455,전라남도 보성군 보성읍 현충로 109 (보성읍),061-852-2165,34.7686526,127.083246
영광약국,57042,전라남도 영광군 영광읍 신남로 181 (영광읍),061-352-1630,35.2761918,126.5018959
정신약국,58417,전라남도 영암군 영암읍 중앙로 25 (영암읍),061-473-2171,34.7988789,126.6969094
독일약국,58439,전라남도 영암군 학산면 독천로 187 187,061-472-4100,34.7257991,126.5695469
수미약국,57219,전라남도 장성군 장성읍 영천로 176 (장성읍),061-393-8595,35.3007692,126.7831347
제일약국,58909,전라남도 진도군 고군면 오일시1길 39 (고군면),061-543-1011,34.5013109,126.3137891
수완푸른숲약국,62248,광주광역시 광산구 왕버들로 222 (수완동),062-973-6200,35.1978126,126.833865
대흥약국,59051,전라남도 해남군 북일면 만월길 24 (북일면),061-533-0020,34.4639532,126.6727485
하나로 약국,59038,전라남도 해남군 해남읍 교육청길 43 하나로약국,,34.5676372,126.6084773
사평약국,58144,전라남도 화순군 남면 사평길 19 (남면),061-372-6015,35.0057029,127.0980628
첨단온누리약국,62282,광주광역시 광산구 첨단중앙로68번길 134 호반상가1동 107호 (산월동),062-971-2270,35.2103003,126.8503699
정다운온누리약국,61704,광주광역시 남구 봉선로 164 (봉선동),062-652-5666,35.1227757,126.9130959
우산종로약국,61188,광주광역시 북구 면앙로 48 (문흥동),062-269-2815,35.1790479,126.9172907
신세계온누리약국,61417,광주광역시 동구 무등로 414 (계림동),062-225-0815,35.1587878,126.9272578
참사랑약국,61102,광주광역시 북구 북문대로 144 1층 (운암동),062-512-7219,35.1820064,126.8734044
메디팜세종약국,61154,광주광역시 북구 삼정로 110 1층 (두암동),062-263-6800,35.1716861,126.9369899
더드림약국,57946,전라남도 순천시 신월큰길 9 (조례동),061-722-2888,34.9603919,127.5201739
세종약국,57741,전라남도 광양시 광양읍 칠성로 55 (),061-763-8275,34.9790532,127.5846596
신북약국,58401,전라남도 영암군 신북면 황금동1길 6 (신북면),061-473-6561,34.8880991,126.6903394
녹원약국,61040,광주광역시 북구 설죽로 495 (일곡동),062-576-8595,35.2033618,126.8981217
하나로약국,61261,광주광역시 북구 북문대로 37 (운암동),062-515-5566,35.1748994,126.8812799
한재약국,57328,전라남도 담양군 대전면 추성1로 190 (대전면),061-383-2896,35.2762945,126.8871368
뷰티온누리약국,61055,광주광역시 북구 서하로 187 (오치동),062-267-5755,35.1874499,126.9010193
늘푸른약국,61688,광주광역시 남구 대남대로 135 (봉선동),062-515-9373,35.133741,126.9101412
편안한김약국,57931,전라남도 순천시 순광로 199 (조례동),061-722-1230,34.9632786,127.5403127
그린온누리약국,61951,광주광역시 서구 치평로 107 1층 108호 (치평동),062-383-9911,35.1574751,126.8458662
조례큰약국,57949,전라남도 순천시 이수로 325 (조례동),061-724-0072,34.9541384,127.519246
동화약국,42929,대구광역시 달성군 다사읍 서재로 31 (),053-583-2155,35.8682168,128.4931823
온누리건강한약국,57504,전라남도 곡성군 옥과면 대학로 158 (옥과면),061-363-6011,35.276579,127.1366397
편한약국,57956,전라남도 순천시 중앙로 68 1층 (장천동),061-746-4800,34.9515675,127.4840527
약손약국,61122,"광주광역시 북구 오산정길 15 (오치동, 오치상설시장아파트)",062-261-3760,35.1883448,126.9080653
새맑은약국,61917,광주광역시 서구 죽봉대로 92 (광천동),062-351-7578,35.1615993,126.883877
하나약국,61181,광주광역시 북구 용주로30번길 10 (용봉동),062-512-1127,35.1813037,126.9013809
팜스타약국,61950,"광주광역시 서구 상무중앙로 75 (치평동, 메디피아)",062-371-7311,35.1536379,126.8478992
플러스약국,58613,전라남도 목포시 용해지구로 11 (용해동),061-279-1412,34.8169719,126.3981273
신약국,57219,전라남도 장성군 장성읍 영천로 202 (장성읍),061-393-2815,35.3024935,126.7852069
사랑약국,61686,광주광역시 남구 봉선2로 102 (봉선동),062-673-3212,35.1258296,126.9175529
압구정원약국,6025,서울특별시 강남구 논현로 842 압구정빌딩 1층 일부호 (신사동),02-548-6243,37.5240509,127.0287459
광주평화약국,61468,광주광역시 동구 제봉로 64 (남동),062-222-8707,35.1440822,126.9214579
용봉약국,61181,광주광역시 북구 반룡로27번길 11 (용봉동),062-523-2368,35.1796422,126.9011894
새봄약국,62014,광주광역시 서구 금화로 90 동해빌딩 1층 (금호동),062-653-6777,35.1319427,126.8585477
건강우리약국,62293,광주광역시 광산구 신창로 46 1층 (신창동),062-953-7868,35.1894175,126.8372896
온누리조례제일약국,57947,전라남도 순천시 조례1길 19 (조례동),061-724-3737,34.9606529,127.5236629
메디팜우성약국,58666,전라남도 목포시 백년대로297번길 7 (상동),061-284-7001,34.8044265,126.4196354
가경파크약국,28382,충청북도 청주시 흥덕구 서현로 60 129호 (가경동),043-232-2270,36.6175121,127.4286308
목동센트럴약국,8064,서울특별시 양천구 신월로 170 1층 (신월동),02-6448-1303,37.5181646,126.8424864
제일약국,46017,부산광역시 기장군 정관면 정관로 560 560,051-727-6991,35.3213888,129.1750629
사랑의약국,47596,부산광역시 연제구 중앙대로 1064 (연산동),051-866-6155,35.1829112,129.079581
광산아이사랑약국,62319,광주광역시 광산구 임방울대로 162 1층 105호 (운남동),062-946-7171,35.1755833,126.8180639
스마일약국,35241,대전광역시 서구 둔산남로 107 (둔산동),042-489-4422,36.3492979,127.3895146
대진약국,58647,전라남도 목포시 용당로 281 종원빌딩 (용해동),061-273-1717,34.8123212,126.3990788
햇빛약국,44425,울산광역시 중구 함월6길 66 104호 (성안동),052-246-6355,35.5751346,129.3081561
이화약국,3970,서울특별시 마포구 월드컵로 126 1층 (성산동),892-1767,37.5595401,126.9072499
서현약국,51236,경상남도 창원시 마산회원구 내서읍 삼계로 12 1층 101호,055-232-6116,35.232225,128.5034759
주문진시장약국,25414,강원도 강릉시 주문진읍 주문로 77 (),033-662-0036,37.8907956,128.8258724
성심약국,21048,인천광역시 계양구 계양대로 187 1층 (계산동),032-546-3363,37.5406422,126.7223333
시민약국,47542,"부산광역시 연제구 시청로 34 (연산동,외1필지)",051-852-7750,35.1819774,129.0738025
푸른온누리약국,7595,서울특별시 강서구 방화대로34길 92 불해빌딩 1층 (방화동),02-2664-6643,37.5708584,126.8214511
바른약국,24221,강원도 춘천시 우두1길 101 112호 (우두동),033-253-0188,37.9089597,127.7335699
무지개삼성약국,6343,서울특별시 강남구 일원로 45 대훈빌딩 1층 (일원동),02-2226-5467,37.489915,127.0815269
정약국,5039,서울특별시 광진구 자양로26길 8 (구의동),02-3436-4580,37.5418246,127.0844613
영진약국,53061,경상남도 통영시 중앙로 101 (항남동),055-645-6094,34.8422627,128.4202877
창녕약국,50325,경상남도 창녕군 창녕읍 창녕시장길 116 (),,35.5425691,128.497009
구봉온누리약국,35373,"대전광역시 서구 관저로 84 107호 (관저동, 구봉마을8단지 상가)",042-542-7755,36.2979174,127.3314031
새천년약국,35315,대전광역시 서구 도산로 235 1층 (내동),042-533-0583,36.3290394,127.3813945
이도건강약국,6167,서울특별시 강남구 테헤란로87길 29 M TOWER 1층 일부호 (삼성동),02-564-3333,37.5096122,127.0580011
인정약국,11612,경기도 의정부시 비우로 69 (녹양동),031-874-0541,37.7583212,127.034628
성심약국,26372,강원도 원주시 문막읍 원문로 1423 (),033-734-7697,37.3264285,127.8447009
행복한약국,12521,경기도 양평군 용문면 다문중앙1길 5 새마을금고 복지회관 1층,031-775-3797,37.4843194,127.592415
햇살약국,14585,경기도 부천시 부흥로 197 107호 (중동),032-611-6161,37.4963505,126.7645967
신세계약국,32230,충청남도 홍성군 홍성읍 내포로 20 (),041-632-2575,36.6001095,126.6656799
한빛약국,2162,서울특별시 중랑구 겸재로 225 1층 (면목동),02-2207-3588,37.5896915,127.092583
동산약국,1782,"서울특별시 노원구 동일로 1280 1층 109호,110호 (중계동, 무지개아파트단지내상가)",948-9476,37.6434962,127.0657409
뿌리약국,8850,서울특별시 관악구 난우길 14 1층 (신림동),02-864-2395,37.474302,126.9188475
제일약국,32948,충청남도 논산시 중앙로 508 (대교동),041-735-2241,36.2079331,127.0824133
경도약국,21626,"인천광역시 남동구 호구포로535번길 48-2 (남촌동, 1층일부)",467-7976,37.430028,126.7156471
이상약국,52684,경상남도 진주시 진주대로 1059-1 (대안동),055-742-2323,35.1941757,128.0837119
솔약국,18455,"경기도 화성시 동탄반석로 120 112호 (반송동, 제일프라자)",031-613-7505,37.1996591,127.0716829
킴스약국,46227,부산광역시 금정구 중앙대로1985번길 1 (남산동),051-516-1859,35.2615078,129.0913661
햇살약국,4101,서울특별시 마포구 백범로 13 신촌르메이에르타운II 3층 309호 (노고산동),02-6956-8457,37.5534473,126.9374963
건강약국,14327,"경기도 광명시 오리로 366 태화빌딩 102,103호 (소하동)",02-897-1788,37.4350351,126.8796879
해봄약국,10307,"경기도 고양시 일산동구 숲속마을1로 29-30 106호 (풍동, 라고크리닉)",031-907-3621,37.6641222,126.7973219
명약도원 한약국,50890,경상남도 김해시 금관대로1335번길 18 1층 (내동),055-326-4922,35.2437081,128.8632765
성진약국,51290,경상남도 창원시 마산회원구 회원남로 81 (회원동),055-248-2013,35.2193006,128.5701279
선약국,7698,서울특별시 강서구 강서로 194-9 (화곡동),02-2605-0556,37.5440444,126.838898
강릉 셀메드 약국,25598,강원도 강릉시 회산로 311 1층 (회산동),033-921-1411,37.7372423,128.8632679
관저올빼미약국,35371,대전광역시 서구 계백로 900 1층 (관저동),042-721-2468,36.2991675,127.324733
삼익약국,2445,서울특별시 동대문구 회기로29길 35 1층 (휘경동),02-963-5490,37.5917344,127.0580267
미래약국,2842,서울특별시 성북구 고려대로 85 (안암동5가),02-924-5264,37.5865159,127.0289014
함춘약국,3082,"서울특별시 종로구 대학로 93 대한성공회 대학로교회 1,2층 (연건동)",02-741-0370,37.5796094,127.0018246
인영약국,2566,서울특별시 동대문구 왕산로 118 (용두동),02-966-5225,37.5779814,127.0363528
로얄약국,7220,서울특별시 영등포구 국회대로37길 25 (당산동4가),02-2633-2822,37.5290078,126.9005977
경애약국,2515,서울특별시 동대문구 사가정로25길 18 (장안동),02-2212-8941,37.5795843,127.0706028
홍약국,2606,서울특별시 동대문구 답십리로48가길 46 (답십리동),02-2212-7582,37.571052,127.0579336
중량약국,2435,서울특별시 동대문구 망우로 131 (휘경동),02-2245-2636,37.5918515,127.067435
신보명약국,2629,서울특별시 동대문구 천호대로79길 66 (장안동),02-2244-1437,37.5650481,127.0644974
대남약국,6959,서울특별시 동작구 상도로22길 26 (상도동),02-822-3502,37.5021397,126.936939
명일보룡약국,5269,서울특별시 강동구 동남로73길 26 (명일동),02-426-4466,37.5533037,127.1547967
고은약국,6989,서울특별시 동작구 사당로23길 185 (사당동),02-532-5384,37.4903902,126.970723
신안약국,6929,서울특별시 동작구 장승배기로 139-1 (노량진동),02-815-9191,37.510076,126.9399824
행복한미래약국,6053,서울특별시 강남구 언주로 707 2층 일부호 (논현동),02-515-3800,37.5162232,127.0350108
세브란스약국,7008,서울특별시 동작구 동작대로25길 39 (사당동),02-593-1551,37.4854002,126.9804039
대일약국,7008,서울특별시 동작구 동작대로27길 22 (사당동),02-591-4655,37.4877046,126.980672
화천약국,7008,서울특별시 동작구 동작대로25길 6 (사당동),02-593-8540,37.4865235,126.9815937
삼성제일약국,6342,서울특별시 강남구 양재대로55길 7 1층 (일원동),02-459-5511,37.4913501,127.0877637
은미약국,7010,서울특별시 동작구 사당로16길 22 (사당동),02-521-6950,37.4825939,126.9731051
복지약국,7009,서울특별시 동작구 사당로 194 (사당동),02-584-5031,37.4851098,126.9696476
교동약국,23002,인천광역시 강화군 교동면 대룡안길 54-62 (),,37.7831094,126.2792049
성서용산약국,42617,대구광역시 달서구 성지로 68 (용산동),053-587-2155,35.8553572,128.5212841
밝은미소약국,46542,부산광역시 북구 금곡대로 161 (화명동),051-365-7738,35.2234893,129.0089519
한솔약국,52149,경상남도 의령군 의령읍 의병로 218 한솔약국,055-573-1656,35.3195021,128.2605269
로데오약국,21573,"인천광역시 남동구 인하로507번길 63 112,113호 (구월동)",032-426-1199,37.4461857,126.7028335
제일온누리약국,53222,경상남도 거제시 옥포로 230 (옥포동),055-688-5633,34.8952857,128.6907797
도움약국,5594,서울특별시 송파구 백제고분로22길 36 1층 (삼전동),02-423-6410,37.5009476,127.0880718
푸른약국,18442,경기도 화성시 동탄솔빛로 44 신성프라자 1층 104호 (반송동),031-8003-3355,37.1928999,127.0729529
가까운상생약국,13590,경기도 성남시 분당구 서현로180번길 19 비전월드 1층 101-13호 (서현동),031-702-8276,37.3873372,127.1224588
광안그린약국,48250,"부산광역시 수영구 광일로 49 109동 상가109호 (광안동, 비치그린아파트)",051-752-7980,35.1622314,129.1084625
센트럴약국,13640,"경기도 성남시 수정구 위례광장로 320 1층 114호 (복정동, 아이에스센트럴타워)",031-759-7588,37.4722451,127.1429497
조은온누리약국,11144,경기도 포천시 포천로 1568 (신읍동),,37.8980047,127.2049073
새한독약국,51264,"경상남도 창원시 마산합포구 완월동15길 15 (장군동4가, 청원그린빌라)",055-242-8275,35.1997101,128.5662821
사과나무약국,13618,경기도 성남시 분당구 성남대로 168 미도프라자 6층 603-1호 (금곡동),031-719-7704,37.3508865,127.1094943
사랑탑약국,22675,"인천광역시 서구 청마로19번길 3 1층 (당하동, 드림빌딩)",032-569-7117,37.592395,126.6707201
한빛약국,24015,강원도 철원군 동송읍 이평로 51-2 한빛약국,033-455-7320,38.209452,127.2181507
연두약국,21574,"인천광역시 남동구 인하로489번길 4 1층일부호 (구월동, 교보생명)",032-434-2250,37.4436365,126.7012603
동부약국,53331,경상남도 거제시 동부면 동부로 1-1 (),070-8817-5833,34.8227762,128.60773
샘터온누리약국,10311,"경기도 고양시 일산동구 하늘마을1로 2 107호 (중산동, 풍산프라자)",031-976-3105,37.6745313,126.7860201
하나로약국,54854,전라북도 전주시 덕진구 비석날로 20 농협하나로마트 1층 (여의동),,35.8532223,127.0780842
평강약국,12209,경기도 남양주시 와부읍 덕소로 87 (),031-576-3002,37.5864828,127.212342
행복한약국,51595,경상남도 창원시 진해구 냉천로 91 벚꽃메디칼상가 (석동),055-542-0927,35.15334,128.7067207
가정약국,57219,전라남도 장성군 장성읍 영천로 208-1 (장성읍),061-393-7576,35.3028917,126.7856067
드림약국,24364,강원도 춘천시 방송길 104 5층 (온의동),033-253-7588,37.8675179,127.7208602
마음약국,2573,서울특별시 동대문구 왕산로 183 1층 (청량리동),02-964-0675,37.5799292,127.0435913
탄방으뜸약국,35262,대전광역시 서구 문정로60번길 20 SN 빌딩 1층 (탄방동),042-471-7711,36.3458263,127.3857778
여기약국,14016,경기도 안양시 만안구 박달로 476 대원빌딩 102-1호 (박달동),031-465-0675,37.402084,126.9052215
기린약국,39832,경상북도 칠곡군 석적읍 유학로 1 (),054-977-7100,36.0805068,128.4110376
유리약국,61404,광주광역시 동구 참판로 29 (계림동),062-223-0880,35.1618991,126.9285905
이룸약국,48492,부산광역시 남구 수영로 216-2 1층 (대연동),051-626-2237,35.1347861,129.0903343
정문약국,26427,강원도 원주시 일산로 23 (일산동),033-743-8747,37.3490476,127.9472672
권약국,16455,경기도 수원시 팔달구 덕영대로895번길 8 1호 (매산로1가),256-8490,37.2688052,127.0001578
철인약국,11670,경기도 의정부시 시민로 83 107호 (의정부동),070-8884-2980,37.7387725,127.0445231
영도서울약국,49056,"부산광역시 영도구 영선대로 75 삼호빌딩 2층, 일부층 (영선동2가)",,35.0877774,129.0417146
더힘찬약국,4737,서울특별시 성동구 독서당로 302 3층 (금호동4가),02-2299-0104,37.5476208,127.0227221
메디팜서창약국,21614,인천광역시 남동구 서창남순환로215번길 35 109호 (서창동),032-461-8842,37.4254896,126.7470575
한결약국,5504,"서울특별시 송파구 올림픽로35길 124 2동 410,411호 (신천동, 장미아파트 에이상가)",02-412-4246,37.5174925,127.1009378
문정이화약국,5854,서울특별시 송파구 법원로 114 엠스테이트 C동 214호 (문정동),02-2283-1153,37.4857987,127.1206993
평화온누리약국,10306,경기도 고양시 일산동구 숲속마을1로 73 신성메디칼 타운 1층 106호 (풍동),070-4121-3223,37.6676488,126.7998884
최약국,26130,강원도 정선군 정선읍 정선로 1348 (정선읍),033-563-0557,37.3795295,128.663777
맑음약국,8754,서울특별시 관악구 남부순환로 1635 1층 (신림동),02-877-0113,37.4848448,126.9323362
더조은약국,33635,충청남도 서천군 서천읍 사곡로43번길 1 (),041-953-6227,36.0839914,126.6878613
샘물약국,13010,경기도 하남시 위례학암로14번길 18 서미프라자 1층 110호 (학암동),02-449-7701,37.4874441,127.1564189
통영항약국,53067,"경상남도 통영시 새터길 15 (도천동, 성모의원)",055-643-4520,34.8408406,128.4176827
현대메디칼약국,21405,인천광역시 부평구 경원대로 1242 (산곡동),032-523-2233,37.4876012,126.7088392
행복한약국,10446,경기도 고양시 일산동구 강송로73번길 7-19 1층 (백석동),031-908-7733,37.6458433,126.7908337
온누리명성약국,21524,"인천광역시 남동구 만수로 43 (만수동, 1층일부)",462-4032,37.4603252,126.7331894
임학약국,21034,인천광역시 계양구 장제로 871 훼밀리빌딩 1층 (임학동),032-541-1312,37.5449614,126.7381522
한솔약국,44962,울산광역시 울주군 웅촌면 삼동로 1621 (),052-225-6888,35.4893456,129.2131107
스카이약국,44530,울산광역시 중구 번영로 371 1층 102호 (학산동),052-291-2660,35.5582223,129.3268217
경희프라자약국,12976,경기도 하남시 신장로 159 (덕풍동),031-795-3452,37.5399453,127.2013706
보룡약국,3397,서울특별시 은평구 통일로 707 1층 (대조동),02-356-6321,37.6089798,126.9309333
우리아이약국,31123,"충청남도 천안시 동남구 만남로 50 1층 104호 (신부동, 터미널프라자)",041-555-0103,36.8186482,127.1576124
정성약국,16439,경기도 수원시 팔달구 장안로 3 (화서동),031-256-7614,37.2854388,127.0069601
다보약국,12138,경기도 남양주시 진건읍 사릉로 431 (진건읍),031-573-9028,37.657107,127.1766728
대학약국,12019,경기도 남양주시 진접읍 광릉내로 108 (진접읍),031-574-3069,37.7464075,127.2059157
미소약국,44507,울산광역시 중구 번영로 566 1층 (남외동),052-295-3489,35.5681607,129.3439504
도 약국,13188,경기도 성남시 중원구 금빛로 43 1층 104호 (금광동),031-778-6521,37.4457443,127.1673424
중동현대약국,14546,"경기도 부천시 석천로183번길 35 303호 (중동, 영플러스3차)",032-328-1636,37.5039147,126.7611243
행복한약국,52650,경상남도 진주시 진양호로 72 1층 (평거동),055-747-0908,35.1668274,128.0476456
건강한약국,41528,대구광역시 북구 복현로 34-1 1층 (복현동),,35.895003,128.6246126
태평보룡약국,13291,경기도 성남시 수정구 수정로171번길 11-1 동남빌딩 1층 (태평동),031-752-9701,37.4439773,127.1383221
상남2층약국,51503,"경상남도 창원시 성산구 마디미서로 51 (상남동, 서울메디칼빌딩)",055-284-7931,35.2207263,128.6813176
미소약국,51489,경상남도 창원시 성산구 가음로 100 (가음동),055-285-8575,35.2040182,128.7031587
새미래약국,44010,울산광역시 동구 방어진순환도로 1160 새미래약국 (서부동),052-236-1356,35.539734,129.4219726
푸른약국,54831,전라북도 전주시 덕진구 시천로 49 (송천동2가),063-278-8300-1,35.8636019,127.1143508
푸른약국,56315,전라북도 부안군 부안읍 석정로 233 (부안읍),063-584-4500,35.7247137,126.7375691
세웅약국,34892,대전광역시 중구 평촌로105번길 73 (태평동),042-531-5656,36.3259415,127.397192
오성옵티마약국,15856,"경기도 군포시 고산로 248 104호 (당동, 은하프라자)",031-399-5888,37.3462582,126.9448574
남사약국,17118,경기도 용인시 처인구 남사면 내기로 10 (남사면),031-333-0363,37.1140901,127.1501238
장기참사랑약국,42685,"대구광역시 달서구 한들로 36 116동 104호 (장기동, 장기영남네오빌파크상가)",053-522-8700,35.8474424,128.5262728
대명약국,50909,경상남도 김해시 가락로 231 (구산동),055-333-1142,35.2459701,128.8746985
미래팜영통약국,16703,"경기도 수원시 영통구 봉영로 1569 409-1호 (영통동, 뉴월드프라자)",031-203-1330,37.2520638,127.0710165
태평양메디컬온누리약국,21614,"인천광역시 남동구 서창남로 81 투엠프라자 1층 112,113호 (서창동)",032-465-3333,37.4262867,126.7480493
세진약국,21091,인천광역시 계양구 계양대로 82 (작전동),032-542-4708,37.5310997,126.7230078
큰나무약국,50862,경상남도 김해시 진영읍 김해대로361번길 8 (),055-342-5734,35.3074876,128.7297998
현약국,44048,울산광역시 동구 방어진순환도로 725 (전하동),052-252-4874,35.5065426,129.4296835
우리온누리약국,10324,경기도 고양시 일산동구 위시티로 34 1층 일부호 (식사동),031-969-9004,37.6754406,126.8091033
숙명온누리약국,4310,"서울특별시 용산구 청파로47길 66 (청파동2가, 중하빌딩)",02-717-6415,37.5450385,126.9667866
중마약국,57788,전라남도 광양시 중마중앙로 83 (중동),061-793-5607,34.9376961,127.6977322
솔빛한약국,18442,경기도 화성시 동탄솔빛로 64 가희프라자2 5층 505호 (반송동),031-8003-7676,37.1942175,127.0746368
압구정미약국,6030,"서울특별시 강남구 논현로175길 25 1층 (신사동, 다보빌딩)",02-548-0085,37.5254436,127.0266599
참좋은약국,49202,부산광역시 서구 대신공원로 23 (서대신동3가),051-255-2267,35.1201323,129.0162654
롯데약국,44705,울산광역시 남구 삼산로 285 1층 (삼산동),052-275-0098,35.5397713,129.3381056
영통대우약국,16704,"경기도 수원시 영통구 봉영로 1620 101호 (영통동, 대우월드마크)",031-204-7133,37.255323,127.0754725
동아약국,26428,강원도 원주시 원일로 114 (중앙동),033-743-7588,37.3499886,127.9487173
굿밸런스온누리약국,16500,경기도 수원시 영통구 월드컵로150번길 30 사랑의 의원 102호 (원천동),031-895-5540,37.2783438,127.0502292
시장약국,52518,경상남도 사천시 사천읍 평화1길 42 42,055-855-4567,35.082975,128.088525
역삼태평양약국,6135,서울특별시 강남구 논현로 564 1층 (역삼동),02-3453-4954,37.5063354,127.0346621
수한약국,62343,광주광역시 광산구 목련로 74 1층 (산정동),,35.1721581,126.8057347
위드팜신한솔약국,11765,경기도 의정부시 천보로 268 (금오동),,37.7580954,127.079122
방배참약국,6695,서울특별시 서초구 효령로 120 1층 102호 (방배동),02-598-7588,37.4810847,126.9974386
태백김약국,26007,강원도 태백시 광장로 16 (황지동),033-552-4702,37.1773332,128.9858866
참약사다온약국,32969,충청남도 논산시 중앙로 464 논산센트럴타워 1층 (반월동),041-733-2815,36.2046911,127.085332
우리힐약국,58687,전라남도 목포시 옥암로 77-1 (옥암동),061-276-3939,34.8061287,126.4269251
튼튼약국,57950,전라남도 순천시 이수로 319 1층 (조례동),061-721-7573,34.9539104,127.5185726
매일봄약국,12150,경기도 남양주시 늘을2로 26 메인시네마타워 607호 (호평동),031-594-7770,37.6550783,127.2441115
우리약국,18341,"경기도 화성시 융건로 91 B105호 (기안동, 풍성신미주타운)",031-898-7997,37.219524,126.988452
나주하나약국,58323,전라남도 나주시 정보화길 50 103호 (빛가람동),061-820-7702,35.0237898,126.7994583
조이팜약국,49371,부산광역시 사하구 감천로 55 1층 (감천동),051-201-0565,35.0905205,128.9987461
중앙약국,48516,"부산광역시 남구 분포로 111 1003동 302호 (용호동, 엘지메트로시티)",051-626-5525,35.1279925,129.1121446
365 대기없는 약국,61468,광주광역시 동구 백서로 157 (서석동),070-4833-4222,35.1432674,126.9222535
동국약국,37754,경상북도 포항시 북구 포스코대로 241 (죽도동),054-283-0283,36.0229571,129.3518164
민선당약국,22215,인천광역시 미추홀구 인하로 269 (주안동),032-864-9282,37.4483223,126.6780788
청명한약국,61455,"광주광역시 동구 남문로753번길 20 B동 112호 (학동, 무등산아이파크)",062-674-1398,35.1371912,126.9231831
대흥약국,38060,경상북도 경주시 충효5길 9-11 (충효동),054-742-3737,35.8445886,129.1786021
다사랑약국,11748,경기도 의정부시 시민로 247 (신곡동),031-842-3412,37.7359921,127.0623479
새로운 약국,32142,충청남도 태안군 태안읍 중앙로 33 1층,041-673-1672,36.7557623,126.2940299
온누리동산약국,22125,인천광역시 미추홀구 길파로 26 (주안동),032-875-0022,37.4680728,126.6798064
인창온누리약국,11918,"경기도 구리시 건원대로 91 (인창동, 중앙빌딩)",031-552-1616,37.6090687,127.1382395
고성군민약국,24717,강원도 고성군 거진읍 거진시장길 10 (거진읍),033-682-1594,38.4474767,128.4551988
한국약국,22800,인천광역시 서구 서달로163번길 9 (석남동),032-581-9297,37.5130743,126.677916
수 약국,11478,"경기도 양주시 옥정동로1길 63 후문상가1동 105호 (옥정동, e편한세상 옥정 에듀써밋)",031-858-8748,37.816633,127.0932062
광주약국,57124,전라남도 함평군 월야면 밀재로 1511 (월야면),061-323-3377-8,35.1799378,126.6271346
구세약국,14754,경기도 부천시 경인로 326 (소사본동),032-349-4705,37.482091,126.7916698
센트럴시티약국,14537,경기도 부천시 길주로 181 골든벨타워 1층 101호 (중동),032-321-6185,37.5053065,126.7626388
하나약국,49036,부산광역시 영도구 태종로 107 영도오션트라움 105호 (영선동1가),051-975-1200,35.0913194,129.042746
퍼스트케어약국,13248,경기도 성남시 중원구 산성대로 338-2 1층 101호 (중앙동),070-7622-8979,37.4432345,127.1542956
목포약국,59002,전라남도 해남군 화원면 금평길 3 목포약국,,34.6684697,126.3285399
당고개약국,1634,서울특별시 노원구 상계로 309-1 (상계동),02-930-5142,37.6708593,127.0800083
평화온누리약국,11674,경기도 의정부시 둔야로 36 (가능동),031-876-1549,37.7391264,127.039913
정성가득약국,14073,경기도 안양시 동안구 시민대로160번길 20 평촌롯데식품관 1층 (호계동),,37.388535,126.9501917
송도이레약국,22002,인천광역시 연수구 해돋이로172번길 42 103호 (송도동),-,37.3980293,126.6480176
제생약국,1342,서울특별시 도봉구 도당로 94 (방학동),02-956-3675,37.6656388,127.037391
정마루약국,16689,"경기도 수원시 영통구 영통로 195 4층 403호 (망포동, 골든스퀘어)",031-204-3181,37.2452099,127.0558468
용암약국,31166,"충청남도 천안시 서북구 월봉로 134 (쌍용동, 리치프라자)",070-4240-7098,36.8025838,127.1191325
설아약국,7803,서울특별시 강서구 마곡중앙6로 65 지투프라자 1층 101호 (마곡동),0507-1326-2189,37.5604253,126.8347194
바우약국,25540,강원도 강릉시 금성로22번길 10 1층 (금학동),033-642-1164,37.7547463,128.8976279
신불당하나로약국,31156,"충청남도 천안시 서북구 불당25로 200 (불당동, 천안농협)",041-569-1234,36.8188843,127.109134
하나로약국,57967,전라남도 순천시 연향중앙상가길 29 1층 (연향동),061-723-0313,34.9510509,127.5201407
대유약국,3654,서울특별시 서대문구 모래내로 359 (홍은동),02-379-4416,37.5818747,126.9358991
명진약국,47250,부산광역시 부산진구 중앙대로 803 1층 일부 (부전동),051-819-9909,35.1636217,129.0632766
행복이열리는약국,31530,"충청남도 아산시 서부북로 973 115호 (배미동, 서진아파트상가)",041-548-4163,36.78942,126.967424
무궁화약국,42840,"대구광역시 달서구 월곡로 112 상가 510동 101, 102호 (상인동, 은행아파트)",053-636-7580,35.8076705,128.5504897
신창약국,31804,충청남도 당진시 면천면 한천로 877 식당,041-357-5423,36.8163208,126.6658979
미성약국,16388,"경기도 수원시 권선구 금곡로102번길 15 3층 328호 (금곡동, 비즈웍스)",031-292-3579,37.2734451,126.941891
신영흥약국,35301,대전광역시 서구 도산로 353 (용문동),042-523-5633,36.336579,127.3906971
하나약국,58712,전라남도 목포시 청호로 8 (호남동),061-243-5355,34.7961828,126.3865346
S메디칼약국,22011,"인천광역시 연수구 하모니로178번길 6 121,122,123호 (송도동)",032-833-7599,37.3823145,126.6413836
안암약국,2842,서울특별시 성북구 개운사길 27 원영스위트 1층 101호 (안암동5가),02-929-1836,37.5875232,127.0291289
평내진약국,12218,"경기도 남양주시 경춘로1308번길 8-8 9-1,9-2호 (평내동, 대명아파트)",031-595-8279,37.6501416,127.2386766
명수대약국,6973,서울특별시 동작구 서달로 151 (흑석동),02-813-2558,37.5069677,126.9615338
신성모약국,5084,서울특별시 광진구 뚝섬로24길 3 (자양동),02-462-0382,37.5362748,127.0637721
광실약국,4170,"서울특별시 마포구 도화길 32 101호 (도화동, 삼성프라자상가)",02-711-3627,37.5408691,126.9494885
한유약국,4149,서울특별시 마포구 백범로 96 1층 (대흥동),02-716-8330,37.547643,126.9420401
군자백화점약국,4985,서울특별시 광진구 천호대로 574 (능동),02-3436-2088,37.5560199,127.0815493
솔약국,3712,서울특별시 서대문구 수색로 32 (남가좌동),02-372-3775,37.5695019,126.9151317
행복한온누리 약국,34868,대전광역시 중구 선화로 20 (용두동),042-223-9141,36.3256009,127.4116319
십자약국,34980,대전광역시 중구 대둔산로 470 (산성동),042-585-0263,36.3109493,127.3887195
하나로약국,34019,"대전광역시 유성구 테크노4로 133 101,102호 (관평동)",042-935-3467,36.4229632,127.388244
열린약국,30028,세종특별자치시 조치원읍 새내로 77-1 77,044-862-2826,36.5988655,127.2983308
다온약국,35206,"대전광역시 서구 청사로 282 (둔산동, 수정타운)",042-484-1488,36.3859867,127.3488912
삼성약국,17873,"경기도 평택시 중앙로 335 1,2층 103,104,203호 (비전동, 벽산아파트)",657-0311,36.9919827,127.1197515
영광메디컬약국,8838,"서울특별시 관악구 신림로 158 1층 1호 (신림동, 영광빌딩)",02-873-4760,37.4729331,126.9338947
건강약국,48579,부산광역시 남구 용호로 129 두산빌딩 1층 (용호동),051-611-1249,35.1206436,129.1123661
가람약국,3168,"서울특별시 종로구 사직로8길 4 301동 B127호 (사직동, 광화문 풍림스페이스본)",02-733-9303,37.5744035,126.9686008
수온누리약국,55764,전라북도 남원시 남문로 401 (왕정동),063-634-2461,35.4067805,127.3754107
베스트약국,14985,경기도 시흥시 목감우회로 51 109호 (목감동),031-482-2588,37.3822473,126.8619256
경산약국,51181,"경상남도 창원시 의창구 창이대로 203 (봉곡동, 두성상가)",055-276-3707,35.2450641,128.6596283
메디칼약국,51609,"경상남도 창원시 진해구 안청남로 28 (안골동, 메디칼약국)",055-551-7668,35.1010068,128.8060191
상록수약국,51265,"경상남도 창원시 마산합포구 장장군로 31 (장군동4가, 상록수약국)",055-247-4280,35.1969895,128.5655985
단비약국,51648,경상남도 창원시 진해구 진해대로 958 (자은동),055-551-6148,35.1442172,128.7068969
미래경남약국,51210,"경상남도 창원시 마산회원구 3·15대로 727 (합성동, 매디칼센타)",055-256-0133,35.2372384,128.5812189
하나로운암약국,61261,광주광역시 북구 북문대로 39 (운암동),062-511-3001,35.1750027,126.8811704
엘리트약국,3779,"서울특별시 서대문구 신촌로 99 5층 (창천동, 엘리트빌딩)",02-392-5505,37.5556897,126.9371958
마석늘건강약국,12166,경기도 남양주시 화도읍 비룡로 113 102호 (지호프라자),031-595-8582,37.6619427,127.3026783
신화약국,8787,서울특별시 관악구 관악로 153 (봉천동),02-885-2078,37.4790258,126.9520504
신우약국,48820,부산광역시 동구 중앙대로 169 (초량동),051-463-3728,35.1129414,129.0381714
용운태평양약국,34526,대전광역시 동구 백룡로 145 2층 (용운동),042-284-5554,36.3280069,127.4543488
관평뜰약국,34019,"대전광역시 유성구 관평2로 56 (관평동,도오프라자 101호)",042-935-1119,36.4220648,127.3880874
도구제일약국,37926,경상북도 포항시 남구 동해면 일월로 140-1 (동해면),054-285-2024,35.9876096,129.448325
마송새천년약국,10018,경기도 김포시 통진읍 조강로 35 (통진읍),031-981-9098,37.6893523,126.6011001
굿윌정약국,4332,서울특별시 용산구 후암로 47 1층 (후암동),02-757-6776,37.5500564,126.977122
하늘온누리약국,22187,인천광역시 미추홀구 낙섬중로32번길 15 (용현동),032-891-8575,37.4511038,126.6380243
강남약국,52709,경상남도 진주시 진주대로 891 (강남동),055-752-6101,35.1798583,128.0902774
성도약국,44722,"울산광역시 남구 삼산로 74 (달동, 롯데마트울산점)",052-275-1122,35.5339781,129.3159084
유한약국,53043,경상남도 통영시 무전8길 13-38 107호 (무전동),055-642-3570,34.8580697,128.4278425
평화약국,52017,경상남도 함안군 칠원읍 용산2길 7 (칠원읍),055-587-2939,35.3076019,128.5172023
플러스약국,50629,경상남도 양산시 양산역1길 24 영동프라자 107호 (중부동),055-381-9706,35.3369759,129.0276538
한일약국,52796,경상남도 진주시 동진로 176 (상대동),055-761-8532,35.1794467,128.1103068
미보약국,52818,경상남도 진주시 동부로169번길 12 윙스타워 C동 112호 (충무공동),752-2841,35.1648818,128.1272793
제일약국,50346,경상남도 창녕군 영산면 연지길 37-1 (영산면),055-536-7022,35.4546642,128.5298249
원광당한약국,61197,광주광역시 북구 서방로 167 (두암동),062-261-9700,35.1692606,126.9305699
민약국,61087,광주광역시 북구 첨단연신로 97 305호 (신용동),062-575-8728,35.206596,126.8640276
미소약국,11948,경기도 구리시 장자대로 72 미림프라자 403호 (수택동),031-562-1490,37.587267,127.1384755
정성약국,13590,"경기도 성남시 분당구 황새울로335번길 5 101호 (서현동, 엔타운빌딩)",031-696-1231,37.3860493,127.1216975
삼일약국,1110,서울특별시 강북구 삼양로 241 1층 (미아동),02-945-3132,37.6251172,127.0181088
사랑온누리약국,6169,서울특별시 강남구 삼성로92길 27 지하1층 (삼성동),02-555-1130,37.5083801,127.0585572
현대약국,10089,"경기도 김포시 태장로 820 111호 (장기동, 엠프라자)",031-981-2490,37.6368299,126.6770136
건강백세약국,31071,충청남도 천안시 동남구 충절로 535-3 1층 (삼룡동),571-1532,36.7765935,127.1777318
가까운 약국,6567,서울특별시 서초구 동작대로 140 송언빌딩 1층 (방배동),,37.4891129,126.9828009
조이약국,4624,서울특별시 중구 퇴계로 220 1층 (충무로4가),02-2269-5948,37.5615229,126.9962515
아름다운약국,10336,"경기도 고양시 일산동구 중산로 253 106,107호 (중산동)",031-976-9537,37.6947124,126.7805227
원당한약국,61663,광주광역시 남구 양림로 72 (양림동),062-675-5275,35.1376177,126.9165961
금새약국,47257,"부산광역시 부산진구 가야대로 785 (부전동, 성영빌딩)",051-805-7004,35.1581247,129.0574677
종로이화약국,13522,경기도 성남시 분당구 판교로 435 동양프라자 1층 108호 (야탑동),031-701-8002,37.4057394,127.1222037
합격약국,6913,서울특별시 동작구 만양로14길 57 (노량진동),02-3280-2680,37.5126485,126.947277
보명약국,3690,"서울특별시 서대문구 거북골로 120 206동 2-12호 (남가좌동, 가재울 센트레빌)",02-308-5197,37.5761735,126.9157281
365자양미소약국,5098,서울특별시 광진구 뚝섬로 606 1층 (자양동),02-453-7985,37.5326708,127.0768739
한가람약국,2439,서울특별시 동대문구 망우로 77 1층 (휘경동),02-3394-4865,37.5902089,127.0617848
푸른약국,4332,서울특별시 용산구 후암로 41 1층 (후암동),02-3789-1460,37.549582,126.9772883
명지약국,30123,세종특별자치시 다정중앙로 58 다정메디프라자 108호 (다정동),044-862-7567,36.495625,127.2492274
정왕큰사랑약국,15040,"경기도 시흥시 중심상가로 47 101호 (정왕동, 시화성모병원(민우프라자))",031-488-8875,37.3524334,126.723559
민정약국,34640,대전광역시 동구 동대전로 72-1 1층 (대동),042-282-6264,36.3291028,127.442574
수레실약국,12772,경기도 광주시 오포읍 수레실길 3-2 (오포읍),031-716-1190,37.3508902,127.1660697
녹양약국,11610,"경기도 의정부시 체육로 306-28 106호 (녹양동, 굿모닝프라자)",031-829-3147,37.7599313,127.0413696
이화사랑약국,11710,"경기도 의정부시 평화로 228 108호 (호원동, 로뎀프라자)",031-873-3579,37.7122087,127.047788
파라곤1층약국,12912,경기도 하남시 미사강변동로 100-1 미사역 파라곤 스퀘어 1027호 (망월동),031-795-5973,37.5639612,127.1936001
늘봄약국,1005,서울특별시 강북구 삼양로 603 1층 (우이동),02-998-1989,37.656879,127.0132061
건강플러스약국,5211,"서울특별시 강동구 아리수로93길 27 108호 (강일동, 강일타워)",02-427-8056,37.5656316,127.1738307
365행복약국,21653,인천광역시 남동구 논고개로123번길 35 칼리오페 1층 A동 126호 (논현동),032-429-8184,37.4015154,126.7220901
한그루약국,63013,제주특별자치도 제주시 한림읍 한림상로 116 103호,064-796-5077,33.4099257,126.265486
즐거운약국,62252,광주광역시 광산구 신창로 64 프뤼몰타운 109호 (신창동),062-955-9066,35.1909362,126.8373949
신지월약국,12729,경기도 광주시 초월읍 산수로 524 (초월읍),031-769-7420,37.4075197,127.3086845
대화약국,51265,"경상남도 창원시 마산합포구 완월동8길 27 (장군동4가, 녹턴음악원)",055-242-5600,35.1982676,128.5655926
영진약국,6069,"서울특별시 강남구 학동로 421 1층 일부호 (청담동, 원영빌딩)",02-545-3121,37.5183992,127.0462942
펄약국,13824,경기도 과천시 과천대로2길 48 펄어비스 B108 (갈현동),070-4141-1204,37.4064679,126.9836162
원약국,10391,경기도 고양시 일산서구 호수로 817 레이킨스몰 264(일부)호 (대화동),070-4156-7861,37.6682829,126.7511979
엘림약국,8100,"서울특별시 양천구 목동로3길 57 (신정동, 양천아파트 상가)",02-2642-8851,37.509736,126.8631234
부평평화약국,21395,"인천광역시 부평구 시장로 32 1층 102,103호 (부평동)",032-710-9415,37.4935787,126.7261913
참약사 대장약국,13544,경기도 성남시 분당구 판교대장로6길 10 107호 (대장동),031-716-5770,37.3667327,127.0683797
온누리자혜약국,8332,서울특별시 구로구 개봉로 66 (개봉동),02-2687-2770,37.4915599,126.856254
인천굿모닝약국,21594,"인천광역시 남동구 장승남로 37 1층 (만수동, 스카이프라자)",471-5134,37.4436499,126.736418
시민온누리약국,52860,경상남도 진주시 관문로 7 율곡스퀘어 프런티어 115호 (가좌동),753-7307,35.1522174,128.1168615
솔 약국,50527,경상남도 양산시 서창로 166 (삼호동),055-366-9959,35.4143709,129.1707977
오리약국,6921,서울특별시 동작구 만양로 3 101호 (상도동),02-813-0526,37.5052307,126.946447
아라큰약국,52072,경상남도 함안군 산인면 학산2길 17-52 (),055-585-7335,35.2747071,128.4321612
나리약국,10874,"경기도 파주시 청석로 268 404호 (동패동, 미소시티)",031-948-4064,37.7258062,126.7176509
정약국,18433,경기도 화성시 동탄지성로 134 한솔프라자 108호 (능동),031-8077-4718,37.2095824,127.0609874
인화약국,46022,부산광역시 기장군 정관읍 정관덕산길 36 (예림전기조명),051-728-5520,35.3225439,129.1834815
호랑약국,16452,경기도 수원시 팔달구 팔달로 53 108호 (고등동),031-256-2278,37.2735426,127.0018614
송이약국,3157,서울특별시 종로구 종로 19 르메이에르종로타운1 2층 206-1호 (종로1가),02-720-1777,37.5708345,126.9798606
킨텍스아는약국,10391,"경기도 고양시 일산서구 킨텍스로 240 142호 (대화동, 킨텍스 꿈에그린)",031-911-6002,37.6659014,126.7504499
신우약국,2573,서울특별시 동대문구 홍릉로 5-1 1층 (청량리동),02-961-8833,37.5808863,127.0447717
서울온누리약국,5047,"서울특별시 광진구 구의강변로 99 (구의동, 용천빌딩)",02-455-5191,37.5395277,127.0938519
신흥약국,26431,강원도 원주시 원일로 91 (일산동),033-731-3893,37.3487967,127.9497129
파랑새약국,6953,서울특별시 동작구 상도로 81 지하1층 (대방동),02-824-5150,37.499959,126.9295669
우리온누리약국,16660,경기도 수원시 권선구 경수대로 193 세류비즈타워 1층 105호 (세류동),031-232-1006,37.2444658,127.0171928
유약국,50948,경상남도 김해시 내외중앙로 35 아카데미 빌딩 (외동),055-338-2640,35.2332003,128.8660487
단골약국,7061,서울특별시 동작구 보라매로 61-1 (신대방동),02-821-3157,37.4949921,126.9271457
생생약국,52817,경상남도 진주시 가호로 41 1층 103호 (호탄동),055-763-9393,35.1638694,128.1106712
준효약국,1824,서울특별시 노원구 공릉로 138 준효약국 1층 (공릉동),02-972-3495,37.6221926,127.0793745
고양힐약국,10271,경기도 고양시 덕양구 보광로 2 1층 일부호 (고양동),031-967-7744,37.7171569,126.9012439
메디팜최약국,46505,"부산광역시 북구 금곡대로616번길 55 105호 (금곡동, 유림상가)",051-363-4460,35.2630212,129.0162521
일출약국,4049,서울특별시 마포구 독막로 85 1층 (상수동),02-333-3806,37.5477717,126.9224099
큰마산약국,51264,경상남도 창원시 마산합포구 완월동15길 20 (장군동5가),055-221-1382,35.1998615,128.5661618
큰사랑약국,15448,경기도 안산시 단원구 광덕1로 62 아트프라자 1층 115호 (초지동),031-410-3767,37.3081662,126.8162857
옥약국,37749,경상북도 포항시 북구 중흥로241번길 8 (죽도동),054-285-2880,36.0251427,129.3589003
홍제당약국,24735,강원도 고성군 간성읍 간성로 60 (간성읍),033-681-2061,38.3795177,128.4685012
건강약국,58643,전라남도 목포시 중화길 16 (상동),061-272-7453,34.8092781,126.4160133
이층약국,21583,인천광역시 남동구 선수촌공원로 36 더블루시티 2층 219호 (구월동),070-7617-3026,37.4421653,126.7105494
힘찬약국,1366,"서울특별시 도봉구 삼양로 580-4 1층 101호 (쌍문동, 노스브릭)",02-996-9114,37.6547761,127.013298
한빛약국,3612,"서울특별시 서대문구 세검정로1길 93 상가A동 1층 109호 (홍은동, 홍은동벽산아파트)",02-3216-5738,37.5946868,126.945476
임호 사거리 약국,0,경상남도 김해시 분성로 174 (외동),055-337-4114,35.2296629,128.8659225
건강한약국,47261,부산광역시 부산진구 가야대로703번가길 33 1층 (당감동),051-802-2774,35.1581297,129.0499132
금강약국,47039,부산광역시 사상구 낙동대로 780 101호 (엄궁동),051-715-2192,35.1302114,128.9717304
오늘약국,48515,부산광역시 남구 분포로 115 힐탑탑플레이스 A동 104호 (용호동),051-611-0509,35.132059,129.112892
온누리유진약국,7317,서울특별시 영등포구 영등포로 356 (신길동),02-833-3248,37.5145866,126.9177407
본리선약국,42653,대구광역시 달서구 와룡로 138 숭조빌딩 1층 101호 (감삼동),053-556-7900,35.8449141,128.5375176
365해피약국,14989,경기도 시흥시 산현마을길 56 청담빌딩 1동 1층 101호 (산현동),031-411-3655,37.3764645,126.8455128
송파웰약국,5645,서울특별시 송파구 오금로 239 1층 102호 (방이동),02-425-5777,37.5066223,127.1202843
솔약국,54391,전라북도 김제시 남북로 196 (요촌동),063-544-3346,35.8014731,126.8849683
하나로약국,59261,전라남도 강진군 칠량면 칠량로 69 (),061-434-8278,34.572536,126.7990358
고래약국,8390,서울특별시 구로구 디지털로26길 123 지플러스타워 지하1층 B105호 (구로동),02-856-0630,37.4830869,126.8977122
영생약국,44679,울산광역시 남구 중앙로 286-1 (신정동),052-272-1326,35.5462953,129.3099377
메디팜일산약국,10445,경기도 고양시 일산동구 백석로108번길 68-11 1층 일부호 (백석동),031-908-4555,37.6463874,126.7914831
백세약국,12711,경기도 광주시 퇴촌면 광동로 41 (명성빌딩),031-765-0568,37.4707326,127.3074235
수유오약국,1041,서울특별시 강북구 삼양로 424 (수유동),02-907-5384,37.6414233,127.017134
진약국,34626,대전광역시 동구 대전로 832-2 1층 (정동),042-223-7977,36.3338079,127.4317252
소화약국,6686,서울특별시 서초구 방배로 87 1층 1호 (방배동),02-558-3400,37.4821718,126.9969232
북일약국,39810,경상북도 칠곡군 북삼읍 금오대로 247 1층,054-973-3345,36.0677514,128.3456261
건강온누리약국,22175,인천광역시 미추홀구 아암대로 15 104호 (용현동),032-201-7500,37.4593649,126.6379145
비타약국,28808,충청북도 청주시 상당구 중고개로 137 222호 (용암동),043-287-1005,36.617198,127.5177625
아이미소약국,31156,충청남도 천안시 서북구 불당33길 1 103-2호 (불당동),041-558-3351,36.810453,127.1069713
도원온누리약국,14721,경기도 부천시 경인로 65 혜영빌딩 1층 일부호 (송내동),032-710-9095,37.4839741,126.7626471
지성약국,7048,서울특별시 동작구 양녕로 189 (상도동),02-822-2309,37.4982163,126.9434564
미소큰약국,57947,전라남도 순천시 조례1길 10-21 (조례동),061-725-7151,34.9596105,127.5223892
봄약국,5373,"서울특별시 강동구 천호대로 1116 1층 102-1호 (성내동, 라이저강동빌딩)",02-471-6001,37.5346716,127.1352138
포근약국,16683,경기도 수원시 영통구 권선로908번길 25 103호 (신동),031-203-7975,37.247451,127.045192
대곶중앙약국,10039,경기도 김포시 대곶면 율생로 35 1층 103호,070-8802-5757,37.6512351,126.5877116
종로중앙약국,3129,서울특별시 종로구 대학로 1 101호 (종로5가),02-744-7233,37.5713376,127.0017799
엘스약국,5501,서울특별시 송파구 올림픽로 119 잠실파인애플상가 1층 B14~15호 (잠실동),02-424-2111,37.5120894,127.0842018
친절한약국,6120,서울특별시 강남구 봉은사로 105 동양빌딩 2층 (논현동),02-511-1242,37.5049634,127.0250571
라임약국,52796,경상남도 진주시 도동천로 74 (상대동),055-755-1033,35.1786423,128.1088639
보배약국,21047,인천광역시 계양구 봉오대로 659 1층 일부호 (작전동),070-4090-3156,37.5309442,126.7221136
김약국,57153,전라남도 함평군 함평읍 서부길 94-6 (),061-322-8277,35.0623636,126.5206652
문막휴게소약국,26364,강원도 원주시 문막읍 원문로 1234 문막하행휴게소,070-7782-7745,37.3352227,127.8582053
실로암약국,34187,대전광역시 유성구 계룡로 105 1층 101호 (봉명동),042-826-9634,36.3537704,127.3424341
중앙당약국,5819,"서울특별시 송파구 오금로38길 5-25 (가락동, 현대상가 101호)",02-401-6407,37.5000194,127.1298507
서강온누리약국,4069,서울특별시 마포구 독막로 147-7 서강쌍용예가 103호 (창전동),02-322-8778,37.5481022,126.9300272
에이스약국,10347,경기도 고양시 일산서구 탄중로 514 에이스10차아파트  상가동 101호 (일산동),031-913-2999,37.6896493,126.7695768
현동미소약국,51777,경상남도 창원시 마산합포구 현동1길 4-10 102호 (현동),055-242-7032,35.1471759,128.5579595
연세한아름약국,10126,경기도 김포시 고촌읍 장차로 1 101호,031-985-3011,37.6025548,126.769639
수약국,6567,"서울특별시 서초구 동작대로 134 5층 (방배동, 가나안빌딩)",02-3478-2929,37.4886136,126.9827975
문정약국,5803,서울특별시 송파구 동남로4길 25 (문정동),02-402-1424,37.4879498,127.1249932
우리약국,1436,서울특별시 도봉구 도봉로 551-10 (쌍문동),02-994-4086,37.6546317,127.0374885
백화점약국,3196,서울특별시 종로구 종로 234-1 (종로5가),02-2264-1161,37.5707752,127.0037425
고려약국,2162,서울특별시 중랑구 상봉로 49 (면목동),02-433-6447,37.5902643,127.0933935
동성온누리약국,2856,서울특별시 성북구 안암로 105 (안암동5가),02-923-6788,37.5851166,127.0314412
상쾌한온누리약국,3398,서울특별시 은평구 역말로 101 토마스빌딩 101호 (역촌동),02-382-6602,37.6084684,126.9201196
황인재약국,1882,"서울특별시 노원구 초안산로1길 18 101호 (월계동, 주공아파트상가)",02-995-8028,37.6285801,127.0523375
메디팜보배약국,4793,서울특별시 성동구 아차산로7길 19 (성수동2가),02-461-5666,37.5468641,127.054704
천사약국,17902,경기도 평택시 평택5로 30 롯데마트 평택점 1층 (합정동),070-4221-3902,36.9884329,127.1117978
양지약국,5369,서울특별시 강동구 진황도로61길 56 (둔촌동),02-473-9779,37.5282025,127.1461169
3층메디칼약국,5648,"서울특별시 송파구 양재대로 1222 23-1호및 23호(일부호 (방이동, 올림픽프라자)",02-401-7657,37.515729,127.1310643
백제약국,3605,서울특별시 서대문구 홍은중앙로 98 (홍은동),02-391-9877,37.5991573,126.9481705
국송약국,6347,"서울특별시 강남구 광평로51길 49 108호 (수서동, 주공A1단지상가)",02-459-1445,37.4920952,127.1008768
건강샘온누리약국,7679,서울특별시 강서구  까치산로 73 1층 (화곡동),02-2062-0155,37.5452639,126.8469479
행복약국,7920,"서울특별시 양천구 남부순환로59길 3 1층 102호 (신월동, 우영아파트)",,37.5321455,126.8315541
서부약국,1620,"서울특별시 노원구 동일로 1551 삼전빌딩 1층 101,102,107,108호 (상계동)",02-935-3424,37.6668972,127.056869
성문약국,8598,"서울특별시 금천구 한내로 69-15 1317-107호 (독산동, 주공아파트)",02-893-9098,37.4577246,126.8873951
정암산약국,8630,서울특별시 금천구 시흥대로 192 (시흥동),02-803-8822,37.4511094,126.9023471
신림당약국,8774,서울특별시 관악구 관천로 17 (신림동),02-856-4755,37.4816671,126.928418
온누리사랑약국,2189,서울특별시 중랑구 용마산로 438 (면목동),02-494-2790,37.5902945,127.0975818
번동약국,1224,서울특별시 강북구 오현로32길 4-3 1층 (번동),02-985-3423,37.6284321,127.0398658
지영오행당약국,3074,서울특별시 종로구 성균관로 32-2 (명륜2가),02-766-9438,37.5855487,126.9970925
연서메디칼약국,3345,서울특별시 은평구 연서로 253-9 1층 (불광동),02-357-9725,37.6201724,126.9228457
상무참약국,61948,광주광역시 서구 운천로 223 (치평동),062-418-9428,35.152276,126.8544019
메디팜나은약국,4322,"서울특별시 용산구 한강대로 211 110호 (한강로1가, 대우월드마크용산)",02-373-8068,37.5370975,126.973093
희정약국,1318,"서울특별시 도봉구 마들로 859-19 109호 (도봉동, 한신아파트근린상가)",02-956-3300,37.6862598,127.0480152
진영약국,5041,서울특별시 광진구 아차산로57길 42 (구의동),454-8827,37.5403459,127.0886907
인덕약국,1905,"서울특별시 노원구 월계로 370 (월계동, 희성프라자 105호)",02-993-6250,37.6310464,127.0609491
연세약국,1751,"서울특별시 노원구 노해로 492 204호 (상계동, 프린스빌딩)",02-933-1898,37.6544635,127.0626968
무지개온누리약국,1904,서울특별시 노원구 화랑로 325 (월계동),02-909-0889,37.6149399,127.0640504
유아약국,8616,서울특별시 금천구 시흥대로104길 14 (독산동),02-804-0785,37.4646086,126.8985363
평화약국,3669,서울특별시 서대문구 증가로 226 (북가좌동),02-304-5181,37.5817556,126.9143723
부광약국,1489,서울특별시 도봉구 덕릉로 398 주공아파트17단지상가 120호 (창동),902-3654,37.6457771,127.0531489
수성약국,2043,"서울특별시 중랑구 신내로 115 113호 (신내동, 도시개발(아)10단지)",02-3421-3649,37.609432,127.094625
영일약국,5387,서울특별시 강동구 풍성로37길 39-21 (성내동),02-473-2872,37.5335767,127.1259499
아이비하늘약국,7333,서울특별시 영등포구 국제금융로 86 (여의도동),02-786-7087,37.5197969,126.9321087
신동아약국,1906,서울특별시 노원구 마들로3길 15 월계이마트 2층 (월계동),02-978-5345,37.6269007,127.061334
신대영약국,5116,서울특별시 광진구 구의강변로 22 (구의동),02-447-8725,37.5329155,127.0918788
온누리새전일약국,8852,서울특별시 관악구 법원단지길 37 (신림동),02-859-2951,37.4744905,126.9196898
한마음약국,3081,서울특별시 종로구 창경궁로 158 (원남동),02-3676-4411,37.5764239,126.9975942
고려약국,5355,서울특별시 강동구 천호대로 1125 (길동),02-477-5257,37.5348982,127.1368219
빛샘온누리약국,6607,서울특별시 서초구 서초대로 331 1층 (서초동),02-596-1307,37.4951577,127.0176552
우주약국,8012,"서울특별시 양천구 목동서로 280 (신정동, 목동아파트 8단지 상가)",02-2646-1001,37.5216388,126.8683043
537약국,6126,서울특별시 강남구 논현로 537 지하1층 (역삼동),,37.5042574,127.0349625
수성약국,16269,경기도 수원시 장안구 정조로922번길 1 1층 (영화동),031-252-0888,37.2902769,127.013474
본리사랑약국,42690,대구광역시 달서구 장기로 217 1층 (본리동),053-567-7488,35.8433246,128.5365395
효선약국,25751,강원도 동해시 하평로 10 효선약국 1층 (평릉동),033-532-4952,37.5308931,129.1061525
에스약국,6657,서울특별시 서초구 서초대로40길 77 102호 (서초동),02-3471-0620,37.4882546,127.0087728
새국민약국,2751,서울특별시 성북구 화랑로 91 (하월곡동),02-909-3463,37.6029883,127.0421269
명약국,12627,경기도 여주시 세종로 34 1층 (홍문동),031-885-1370,37.2757529,127.0296146
다사랑약국,5534,"서울특별시 송파구 토성로 11 1,2층 (풍납동)",02-477-2590,37.5312314,127.1120415
더조은약국,56308,전라북도 부안군 부안읍 번영로 145 (),063-584-0994,35.7264062,126.7364722
동산약국,34127,"대전광역시 유성구 죽동로297번길 72 103호 (죽동, KJ빌딩)",042-861-5811,36.3700384,127.3387784
센츄럴팜약국,4509,서울특별시 중구 한강대로 405 2층 (봉래동2가),02-393-5505,37.554989,126.9695548
온누리성모약국,14647,경기도 부천시 소사로327번길 36 (소사동),032-349-2139,37.486314,126.7924895
안정약국,17982,경기도 평택시 팽성읍 안정쇼핑로 37-1 1층 101호,031-691-1981,36.9612273,127.0462214
이편한약국,14256,"경기도 광명시 오리로 801 (하안동, e편한세상센트레빌아파트 가동상가 105호)",070-41121258,37.4686239,126.8674605
가은약국,8738,서울특별시 관악구 봉천로 486 (봉천동),02-878-9669,37.4816375,126.9537506
송파사거리약국,5687,서울특별시 송파구 송파대로 387 1층 (석촌동),02-420-4452,37.5019388,127.1095673
공원온누리약국,7312,서울특별시 영등포구 신길로 252 (영등포동),02-836-2086,37.5141257,126.9117698
동의당한약국,8314,서울특별시 구로구 도림로 31 2층 (구로동),02-852-4852,37.4872107,126.8879639
미소약국,14568,경기도 부천시 조종로 45-4 (원미동),032-611-2006,37.4929153,126.78997
장원옵티마약국,7395,서울특별시 영등포구 신길로 147 1층 (신길동),02-833-4824,37.5054208,126.9105102
위례바른약국,13010,경기도 하남시 위례학암로14번길 11 101호 (학암동),02-3401-8999,37.4875035,127.1572616
평촌약국,35425,대전광역시 서구 벌곡로 417 (평촌동),042-583-9520,36.2405844,127.3222577
서울센타약국,8308,서울특별시 구로구 가마산로 206 1층 (구로동),02-837-2633,37.493014,126.8840159
대성약국,8353,"서울특별시 구로구 개봉로3길 35 (개봉동, 성은빌딩)",02-2066-0120,37.4861749,126.8543242
중앙약국,46548,부산광역시 북구 만덕대로 41 (덕천동),051-331-0080,35.2114064,129.0094574
청솔약국,24352,강원도 춘천시 금강로 67-1 1층 (조양동),033-251-3981,37.879341,127.729191
온누리좋은약국,8306,서울특별시 구로구 가마산로 246 1층 (구로동),02-857-1621,37.4946401,126.8883501
방이메디칼약국,5629,서울특별시 송파구 가락로 277 (방이동),02-423-0563,37.5126353,127.1195397
서울온누리약국,6196,서울특별시 강남구 역삼로77길 23 (대치동),02-3453-9557,37.5039541,127.0559781
윤약국,3712,서울특별시 서대문구 수색로2길 16-1 (남가좌동),02-306-9212,37.5695911,126.9162603
새우리약국,50222,경상남도 합천군 삼가면 삼가중앙길 25-2 (),055-932-7570,35.4136309,128.1223421
보광약국,50920,경상남도 김해시 분성로 320 (서상동),055-334-7887,35.2332968,128.8809357
다원약국,13625,"경기도 성남시 분당구 미금로 39 3층 302호 (구미동, 로얄프라자)",031-719-9691,37.3368392,127.1160179
정문약국,41944,대구광역시 중구 동덕로30길 31 (동인동2가),053-254-0213,35.8671132,128.6056023
미르약국,37636,경상북도 포항시 북구 우창동로55번길 19 1층 (우현동),054-241-1503,36.0558122,129.3626666
마송서울약국,10018,경기도 김포시 통진읍 조강로 49-1 (통진읍),031-987-1016,37.6902374,126.5999525
메디팜동진약국,8312,서울특별시 구로구 도림로 75 1층 (구로동),02-869-6183,37.4899932,126.8917418
미래약국,42460,대구광역시 남구 성당로 152-1 1층 (대명동),053-625-6868,35.848131,128.5692369
새동산약국,50039,경상남도 함양군 함양읍 용평길 43 새동산약국,055-964-0067,35.5200856,127.7319557
대학당약국,41944,대구광역시 중구 동덕로30길 31 (동인동2가),053-425-5453,35.8671132,128.6056023
신월시장약국,7923,서울특별시 양천구 곰달래로13길 20-1 (신월동),02-2602-7613,37.5317564,126.836677
보람약국,7948,서울특별시 양천구 목동중앙본로 97 (목동),02-2646-7102,37.5444004,126.8705416
제이약국,41950,대구광역시 중구 달구벌대로 2188 1층 101호 (대봉동),053-431-0160,35.8628184,128.602441
성심약국,7970,서울특별시 양천구 목동중앙북로 128 (목동),02-2643-9211,37.5462741,126.8773838
희망약국,4709,서울특별시 성동구 고산자로 255 1층 (도선동),02-2299-8282,37.5626006,127.0357246
장창만약국,25115,강원도 홍천군 북방면 두개비산로 329 (북방면),033-434-2030,37.7039202,127.8533591
정성약국,8226,"서울특별시 구로구 경인로 373 2층 (고척동, 문화골든타워)",02-2060-5132,37.4969239,126.8619052
뉴프라임약국,5711,서울특별시 송파구 송파대로 278 1층 (가락동),02-403-2638,37.4942892,127.1177511
평화약국,8786,서울특별시 관악구 남부순환로 1784 1층 (봉천동),02-885-3575,37.4814223,126.9484496
플러스약국,22789,인천광역시 서구 칠천왕로33번길 18 1층 (석남동),575-9917,37.5094822,126.6698266
천지약국,57154,전라남도 함평군 함평읍 영수길 136 (),,35.062063,126.5198526
더블유스토어하이약국,6650,서울특별시 서초구 사임당로 39 한성빌딩 (서초동),070-4117-8275,37.4884264,127.0141123
효자제일약국,55080,전라북도 전주시 완산구 용머리로 32 대일빌딩 202호 (효자동1가),063-229-2582,35.8056931,127.1138879
서귀포스타약국,63589,제주특별자치도 서귀포시 태평로 505 (동홍동),064-733-7582,33.2503059,126.5714176
플러스약국,8208,"서울특별시 구로구 경인로 661 (신도림동, 신도림1차푸르지오)",02-3439-8855,37.5095178,126.8877039
전원약국,7011,"서울특별시 동작구 사당로 244 1호 (사당동, 사당시장 점포)",02-585-9677,37.4830336,126.9748808
성모약국,42784,대구광역시 달서구 월배로 119 (진천동),053-644-3722,35.8151866,128.5272968
다인약국,17048,경기도 용인시 처인구 중부대로 1349 (김량장동),031-323-3211,37.2352292,127.1948421
초록약국,48038,부산광역시 해운대구 선수촌로 109-1 (반여동),051-529-7515,35.2036219,129.119628
튼튼약국,13376,"경기도 성남시 중원구 성남대로 1133 (성남동, 메트로칸 316호)",031-721-6560,37.4310405,127.128633
반석온누리약국,12166,경기도 남양주시 화도읍 비룡로 111 (),031-511-7477,37.6617384,127.3027784
연세약국,2506,서울특별시 동대문구 전농로16길 11 (전농동),02-2213-1239,37.578666,127.0582886
이백세약국,41451,대구광역시 북구 칠곡중앙대로 411 우영펠리스 1층 (태전동),053-651-5500,35.9324969,128.5479862
감초당약국,39859,경상북도 칠곡군 동명면 금암중앙길 34-1 (),054-977-8838,35.9821101,128.5536953
해태보라매약국,7071,"서울특별시 동작구 보라매로3길 29 (신대방동,해태보라매타워상가동 1층 28호)",02-833-0853,37.491405,126.925186
새복현약국,41524,대구광역시 북구 공항로 7 1층 (복현동),053-943-9386,35.8980864,128.6159424
경북제일약국,41944,대구광역시 중구 동덕로30길 35 (동인동2가),053-424-2443,35.8670647,128.6057149
프라자약국,10391,"경기도 고양시 일산서구 호수로 817 지하1층 일부호 (대화동, 레이킨스몰 홈플러스킨텍스점)",031-917-3137,37.6682829,126.7511979
별약국,1302,서울특별시 도봉구 도봉로 927 1층 (도봉동),02-6339-2010,37.6871832,127.0455068
햇님약국,22114,인천광역시 미추홀구 숙골로 114 우리타워 103호 (도화동),032-872-2582,37.4721127,126.6620373
대학온누리약국,13289,경기도 성남시 수정구 시민로205번길 28 1층 (태평동),031-743-0625,37.4454597,127.1385905
석촌온누리약국,5626,서울특별시 송파구 송파대로 438 103호 (송파동),02-421-9789,37.5059196,127.1070161
튼튼약국,21420,인천광역시 부평구 동수로 184 1층 (부개동),,37.4860481,126.7390032
햇살약국,44750,"울산광역시 남구 수암로 148 2층 (야음동, 홈플러스)",052-256-9735,35.526407,129.3227236
스마트약국,14999,경기도 시흥시 능곡번영길 22 116호 (능곡동),031-311-1944,37.3699081,126.8078965
소하백화점약국,14313,경기도 광명시 하안로 200 스페이스타원 101호 (소하동),02-897-0324,37.455059,126.8865846
감사약국,10125,경기도 김포시 고촌읍 김포대로 340 김포뉴시티 1층 104호,031-997-3722,37.6013677,126.7708131
신부강약국,44739,울산광역시 남구 수암로 115 (신정동),052-272-0751,35.5286368,129.3200898
조은약국,11177,경기도 포천시 소흘읍 송우로 65 메듀파크 105호,031-541-7359,37.8293912,127.1416385
봄약국,1751,서울특별시 노원구 동일로 1392 1층 (상계동),02-939-8139,37.6530591,127.0613426
새정성약국,21430,"인천광역시 부평구 동수로 28 101호 (부평동, 샬렛주상상가)",032-503-0668,37.4846826,126.721672
살맛나는온누리약국,21524,"인천광역시 남동구 만수서로 52 1층 104호 (만수동, 쓰리제이프라자)",032-462-6653,37.4614552,126.7317473
금빛희망약국,39164,경상북도 구미시 산동면 신당1로3길 19 108호,054-471-3219,36.1558232,128.4312401
선한약국,51754,"경상남도 창원시 마산합포구 가포순환로 33 상가1동 208-1호 (월영동, 마린애시앙부영)",055-808-7077,35.1744188,128.5650295
래미안종로약국,35297,"대전광역시 서구 가장로 106 상가동 1층 (가장동, 삼성 래미안아파트)",042-528-0300,36.3329316,127.3846874
참조은약국,26456,강원도 원주시 행구로 148 (행구동),033-735-1724,37.341715,127.9725155
참솔약국,34994,대전광역시 중구 문화로 54 (산성동),587-5466,36.310665,127.3920041
화정메디칼약국,10500,"경기도 고양시 덕양구 화중로 72 105호 (화정동, 케이탑리츠화정빌딩)",031-974-5353,37.6336038,126.8310953
봄약국,42736,대구광역시 달서구 구마로 218 (송현동),053-651-8276,35.8366015,128.551486
효양약국,17327,경기도 이천시 부발읍 대산로 476-13 1층 (덕원빌딩),031-635-4881,37.2598776,127.4795448
동안메디약국,2584,서울특별시 동대문구 천호대로17길 75 1층 (용두동),02-962-7244,37.5774297,127.03215
구로조은약국,8285,서울특별시 구로구 가마산로 219 1층 (구로동),02-869-6644,37.4938396,126.8855409
민락메디칼약국,11815,"경기도 의정부시 용민로 483 107,108호 (민락동, 보광프라자)",031-853-1817,37.750768,127.1180814
뉴욕약국,62313,광주광역시 광산구 하남대로 282 1층 (운남동),062-952-6882,35.1788005,126.824501
스마트약국,13589,"경기도 성남시 분당구 중앙공원로40번길 42 49동 1층 120호 (서현동, 우성종합상가)",031-705-6969,37.3781753,127.1323782
정다운온누리약국,51465,"경상남도 창원시 성산구 가양로124번길 17-12 (대방동, 실로암빌딩)",055-261-1906,35.2078074,128.7078675
조일약국,3347,서울특별시 은평구 연서로34길 7 (불광동),02-384-3594,37.6214385,126.9272339
둔산봄약국,35230,대전광역시 서구 대덕대로 199 1층 (둔산동),042-477-5880,36.3510361,127.3777972
SK온누리약국,1192,서울특별시 강북구 솔샘로 184 에스케이북한산시티 112~113호(미아동) (미아동),02-983-8895,37.6199404,127.012925
구름약국,1851,서울특별시 노원구 섬밭로 152 공릉아파트2단지상가 1층 101호 (공릉동),02-979-3007,37.6299419,127.0683015
방학태평양약국,1342,서울특별시 도봉구 도당로 80 방학동근생 1층 (방학동),02-3491-6626,37.6648434,127.0363673
홍제튼튼약국,3630,서울특별시 서대문구 세무서길 8 1층 2호 (홍제동),02-725-0266,37.5883062,126.9455023
사거리약국,48445,부산광역시 남구 진남로 4 1층 (대연동),051-612-0492,35.1353582,129.0920109
약사랑약국,4619,서울특별시 중구 퇴계로 244 1층 (충무로5가),02-2267-0818,37.5621121,126.9990372
동원약국,10888,경기도 파주시 초롱꽃로 133-3 운정퍼스트타워 1층 105호 (동패동),031-948-7652,37.7125224,126.7187571
나음온누리약국,18484,"경기도 화성시 동탄순환대로20길 45 상가동 203호 (목동, 동탄 금강펜테리움 센트럴파크Ⅳ)",031-377-2045,37.1896357,127.1288204
한마음약국,25802,강원도 동해시 효자로 691 (효가동),033-521-9998,37.4929224,129.1097088
건민약국,14469,경기도 부천시 지양로158번길 5 (고강동),032-671-2118,37.5232675,126.8252572
경남약국,52568,경상남도 사천시 중앙로 44-1 (선구동),055-833-3925,34.930179,128.0752298
사랑의약국,5671,서울특별시 송파구 가락로28길 3 (송파동),02-421-5411,37.5064815,127.1162955
유명약국,38213,경상북도 경주시 외동읍 입실로 78 (),054-748-1988,35.7153516,129.3242711
진하온누리약국,12800,경기도 광주시 곤지암읍 평촌길 36 극동빌딩 101호,031-798-4120,37.3564255,127.3257361
동진약국,16311,경기도 수원시 장안구 정조로 987 (정자동),031-255-1261,37.2950124,127.0092727
인제약국,14314,경기도 광명시 금하로 525 1층 (소하동),02-2612-8150,37.4512641,126.8903267
보운온누리약국,46994,"부산광역시 사상구 양지로 3 (주례동, 대성상가2동 116호,117호)",051-322-6886,35.1531341,129.0042138
우성약국,5571,"서울특별시 송파구 올림픽로4길 42 (잠실동, 우상나상가 3층)",02-423-4080,37.5066864,127.0729687
라라약국,15455,경기도 안산시 단원구 원포공원1로 49 태영타운 311호 (초지동),031-480-1708,37.302442,126.8123402
사랑약국,14239,경기도 광명시 디지털로 29 (철산동),02-2682-8206,37.4741649,126.8708395
성경온누리약국,2178,서울특별시 중랑구 망우로 478 (망우동),02-432-6443,37.6003656,127.105263
중앙약국,4923,서울특별시 광진구 용마산로 53 (중곡동),02-452-4420,37.5584572,127.0875882
은혜온누리 약국,16490,경기도 수원시 팔달구 효원로219번길 55 101호 (인계동),031-8067-5070,37.2658028,127.0266979
장원온누리약국,59733,전라남도 여수시 중앙로 29-1 1층 (충무동),061-662-3170,34.7404869,127.7310092
튼튼약국,7004,서울특별시 동작구 사당로 215 서림빌딩 112호 (사당동),02-599-9297,37.4844478,126.972335
새봄약국,48305,부산광역시 수영구 광안해변로 95 비치아파트 에이상가 105호 (남천동),051-612-1014,35.1432151,129.1139786
자연애약국,51022,"경상남도 김해시 율하6로 49 솔리비오메디컬센터 1층 101,102호 (장유동)",055-724-3075,35.1711997,128.8245962
밀알약국,1081,서울특별시 강북구 덕릉로 79 (수유동),02-998-7975,37.6348059,127.0226211
샘약국,6211,"서울특별시 강남구 테헤란로 322 102호 (역삼동, 한신인터밸리24)",02-558-3347,37.5032509,127.046588
나아약국,5387,서울특별시 강동구 천호대로162길 50 (성내동),02-488-6241,37.534711,127.1278832
솔모루약국,11174,경기도 포천시 소흘읍 솔모루로78번길 17 1층,031-542-2445,37.8279021,127.1483835
늘푸른약국,50818,경상남도 김해시 삼안로195번길 30 (삼방동),055-321-5815,35.2450875,128.9088465
은하약국,42993,대구광역시 달성군 유가면 비슬로64길 52-1 (유가면),053-614-2058,35.672945,128.4488318
성모약국,16351,경기도 수원시 장안구 파장로 37 (파장동),031-245-4264,37.3051579,126.9963839
문산약국,10823,경기도 파주시 문산읍 문산로40번길 20 (문산읍),070-4115-8999,37.8565102,126.7836488
수영약국,41794,대구광역시 서구 달서로 184-1 (비산동),053-565-7868,35.8787335,128.5715618
그린약국,31981,충청남도 서산시 안견로 190 (동문동),041-665-5034,36.7818807,126.4581471
후문약국,4762,서울특별시 성동구 마조로 22-3 1층 (행당동),02-2299-7800,37.5598296,127.0414335
비타민약국,47818,부산광역시 동래구 명륜로 81 1층 (수안동),051-558-9333,35.2011521,129.0838261
유약국,32222,충청남도 홍성군 홍성읍 조양로 141 (홍성읍),041-631-3900,36.6018788,126.6656659
터미널약국,31981,충청남도 서산시 안견로 190 서산공용버스터미널 (동문동),041-669-8701,36.7818884,126.4581527
동동약국,50653,경상남도 양산시 물금읍 서들로 148 117호,055-383-5569,35.3118187,129.0066871
행복한세상 우리들약국,12800,경기도 광주시 곤지암읍 평촌길 38-14 (),031-762-0996,37.3565252,127.3254643
용인하나로약국,17070,"경기도 용인시 기흥구 중부대로 682 가동 1층 (상하동, 동양마트)",070-8899-1366,37.2660481,127.135846
이화메세나약국,4036,"서울특별시 마포구 양화로 45 B105호 (서교동, 메세나폴리스몰)",02-332-5452,37.5510463,126.913739
1(일)약국,14009,경기도 안양시 만안구 박달로 518 (박달동),031-468-3354,37.4024396,126.9102181
아이메디칼약국,2733,"서울특별시 성북구 동소문로46길 18 101호, 102호 (하월곡동, 삼전솔하임3차)",02-942-3365,37.606851,127.029956
삼광온누리약국,42654,대구광역시 달서구 당산로 88 (성당동),053-625-2626,35.8453445,128.544805
산성하나약국,35055,대전광역시 중구 대둔산로 390 1층 (산성동),582-6565,36.3041085,127.3865692
청송약국,10080,"경기도 김포시 청송로 18 109호 (장기동, 청송마을 상가동)",031-988-9310,37.6473747,126.6659876
청주상록약국,28556,충청북도 청주시 서원구 흥덕로 36 (사직동),043-272-7768,36.6387319,127.4736814
포도약국,63236,제주특별자치도 제주시 아연로 603 1층 (아라일동),070-8780-4125,33.4777477,126.5435873
미광약국,38623,경상북도 경산시 중앙로 77 1층 (중방동),053-283-0031,35.8234606,128.7351457
일층약국,48434,"부산광역시 남구 수영로 323 1층 105호 (대연동, 태강프라자)",051-611-2296,35.1382148,129.1010282
아름다운약국,2720,"서울특별시 성북구 길음로 33 상가B동 지층 17,18,19호 (길음동, 길음뉴타운)",02-912-5148,37.6072048,127.0194894
미진약국,6232,"서울특별시 강남구 강남대로 390 B1-5호 (역삼동, 미진프라자)",02-566-1954,37.497901,127.028709
스타온누리약국,44042,울산광역시 동구 방어진순환도로 785 (전하동),052-233-6925,35.5118103,129.4303565
동백미소약국,17003,"경기도 용인시 기흥구 동백중앙로 358-19 106호 (동백동, 미래도프라자)",031-693-6097,37.2815742,127.1608964
맑은약국,61962,광주광역시 서구 상무중앙로 43 1층 (치평동),062-376-0073,35.1510031,126.8478289
솔약국,11148,경기도 포천시 왕방로 130 1층 (신읍동),031-533-8662,37.8950103,127.1925398
다온약국,12787,경기도 광주시 태전동로 27 1층 103호 (태전동),031-767-3339,37.386216,127.2338426
연희연세약국,22720,인천광역시 서구 서곶로369번길 24 1층 (연희동),566-9380,37.5505673,126.6741005
상인사랑약국,42781,대구광역시 달서구 월배로 199 102호 (상인동),053-635-7300,35.818398,128.5352327
천사온누리약국,13642,"경기도 성남시 수정구 위례동로 141 1층 106호 (창곡동, 우성메디피아)",070-4203-7234,37.4726432,127.1500709
우리약국,22800,인천광역시 서구 서달로 159 102호 (석남동),579-8150,37.5127963,126.6786843
영약국,21586,"인천광역시 남동구 인하로 616 105호 (구월동, 커뮤니티프라자)",032-471-5001,37.442524,126.7152048
솔약국,15865,"경기도 군포시 산본로343번길 9 704호 (산본동, 성진빌딩)",031-397-0664,37.3606163,126.9317701
서현해맑은약국,13591,"경기도 성남시 분당구 황새울로342번길 11 103호 (서현동, 금호리빙스텔)",031-705-3913,37.3862176,127.1236466
야탑원약국,13497,"경기도 성남시 분당구 야탑로69번길 3 106호 (야탑동, 강남프라자)",031-701-1071,37.4100921,127.1263732
관양온누리약국,13939,"경기도 안양시 동안구 관악대로 387 1층 101, 102호 (관양동)",031-421-1320,37.4049406,126.9658443
신경희약국,5269,서울특별시 강동구 동남로71길 32 환타지아 105호 (명일동),02-426-5826,37.5519853,127.1545077
세송약국,41715,대구광역시 서구 팔달로 164 (비산동),053-353-1252,35.8885758,128.5678325
건강희망약국,22636,"인천광역시 서구 완정로 153 이레메디칼센타 101호 ,102호 (왕길동)",032-568-1589,37.601364,126.6587545
법수약국,52057,경상남도 함안군 법수면 법정로 7 7,055-584-2922,35.3186334,128.3836709
신농약국,11106,경기도 포천시 영북면 운천안길 31 (),031-532-5209,38.089985,127.2735836
365박달온누리약국,13987,경기도 안양시 만안구 양화로 112 101호 (박달동),031-465-3512,37.4027788,126.910635
웰츠약국,13524,"경기도 성남시 분당구 분당내곡로 159 A동 115호 (삼평동, KCC웰츠타워)",070-4256-8810,37.3977124,127.1125495
강남굿모닝약국,6267,"서울특별시 강남구 남부순환로 2615 208호 (도곡동, 극동스타클래스상가)",02-529-4155,37.4851832,127.0358917
비타민약국,22778,"인천광역시 서구 가정로 375 310호,311호 (신현동, 금강아미움)",575-8899,37.5184643,126.6726009
편안한약국,16393,"경기도 수원시 권선구 서수원로 519 106호 (금곡동, 성광프라자)",031-278-0523,37.272466,126.9594672
365웃장대형약국,57939,전라남도 순천시 중앙로 136 1층 (매곡동),061-753-5522,34.9577919,127.4844433
튼튼약국,51548,"경상남도 창원시 성산구 안민안길 20 (안민동, 한솔프라자)",286-3338,35.1865797,128.691742
마루약국,16689,"경기도 수원시 영통구 영통로 195 408호 (망포동, 골든스퀘어)",031-206-1118,37.2452099,127.0558468
보람약국,7694,"서울특별시 강서구 강서로 242 321호 (화곡동, 강서힐스테이트상가)",02-2699-7057,37.5473848,126.8367634
365약국,2729,서울특별시 성북구 동소문로 321 1층 (길음동),985-1365,37.6086394,127.029463
정다운약국,10416,"경기도 고양시 일산동구 일산로 213 106호 (마두동, 두성코아빌딩)",031-906-4946,37.6551773,126.7892484
삼랑진사거리약국,50467,경상남도 밀양시 삼랑진읍 천태로 13 1층,055-352-9293,35.397152,128.8378737
성모약국,34007,대전광역시 유성구 봉산로 22 1층 (봉산동),042-934-7202,36.4355978,127.3873249
수정이화약국,13346,경기도 성남시 수정구 수정로 214 (신흥동),031-731-7317,37.44439,127.1436108
가까운약국,14030,"경기도 안양시 만안구 안양로 225 지하1층 (안양동, KT서안양지점)",031-468-5566,37.3933866,126.925477
위례다나약국,13640,경기도 성남시 수정구 위례광장로 310 우성트램타워 B동 104호 (창곡동),031-722-6477,37.4727085,127.1429284
옥정튼튼약국,11473,"경기도 양주시 옥정로 218 108호, 109호호 (옥정동)",031-858-6579,37.8210331,127.0921467
열린약국,44933,울산광역시 울주군 범서읍 울밀로 2822 (),052-222-1510,35.5577179,129.2569048
힐링약국,51606,"경상남도 창원시 진해구 안골로 339 107호 (용원동, 코아루아파트상가)",055-552-1858,35.1015192,128.8081026
365청솔약국,51744,"경상남도 창원시 마산합포구 해안대로 7 (월남동5가, 경남은행)",055-242-9223,35.1807905,128.5597378
감귤약국,63591,제주특별자치도 서귀포시 동문로 64 (서귀동),064-901-2046,33.2490218,126.5668817
삼성약국,18482,"경기도 화성시 동탄대로 446 1029,1030호 (청계동)",031-373-3401,37.1933905,127.1000579
은혜약국,17502,경기도 안성시 양성면 만세로 608 (),031-672-9005,37.0582875,127.1961617
행복플러스약국,53267,경상남도 거제시 장평로 12 (장평동),055-680-0988,34.890759,128.6164715
연경약국,41409,대구광역시 북구 동화천로 241 105호 (연경동),053-982-1236,35.9426488,128.617379
감초당약국,12186,경기도 남양주시 화도읍 수레로1233번길 11 104호 (경향아파트상가),031-595-7750,37.646541,127.3007878
원약국,32971,충청남도 논산시 계백로 995 (취암동),041-435-7022,36.2032573,127.0874526
회생약국,54834,전라북도 전주시 덕진구 송천중앙로 147 (송천동1가),063-277-3152,35.8600295,127.1209973
수약국,27871,충청북도 진천군 덕산읍 대하로 133 (),043-533-0177,36.9029328,127.5341831
찬슬약국,26437,강원도 원주시 봉화로 31 시재메디타워 1층 (단계동),070-4133-1234,37.3473021,127.9283387
가온약국,49412,부산광역시 사하구 동매로 167 101호 (당리동),051-996-4664,35.1015136,128.9761773
우리약국,44979,울산광역시 울주군 온양읍 연안2길 19 (온양읍),052-239-8275,35.4085568,129.2823351
옥정온누리약국,11473,경기도 양주시 옥정로 222 옥정스카이 1층 108호 (옥정동),031-868-7939,37.8214014,127.0921542
도담약국,21312,인천광역시 부평구 세월천로 42 1층 (청천동),,37.5131208,126.7049035
가까운천사약국,7632,서울특별시 강서구 공항대로36길 9 1층 (내발산동),02-2662-0266,37.5581245,126.8374733
나라약국,7778,서울특별시 강서구 강서로 27 103호 (화곡동),02-2694-9228,37.5303734,126.8471931
동구종로약국,61468,광주광역시 동구 서남로 2 (서석동),062-233-6030,35.1454616,126.922104
뉴크로바약국,1601,서울특별시 노원구 누원로 22 크로바상가 101호 (상계동),02-938-4484,37.6871033,127.0530611
비전굿모닝약국,16461,"경기도 수원시 팔달구 덕영대로 923-10 407호 (매산로1가, 비젼포에버)",257-3326,37.265942,127.001693
토마토약국,22711,인천광역시 서구 심곡로100번길 17-3 1~3층 (심곡동),567-5860,37.5421341,126.6826962
새봄약국,11492,"경기도 양주시 고읍남로 10 104호 (광사동, 더테라스 2)",031-845-9966,37.7954018,127.0799504
조은약국,57991,전라남도 순천시 우명길 35 (연향동),061-745-9633,34.9483114,127.5128734
마미약국,31771,충청남도 당진시 밤절로 140 드림타워 304호 (수청동),,36.9015021,126.6455059
샤로수약국,8788,"서울특별시 관악구 관악로 164 1층 110호 (봉천동, 대우디오슈페리움1단지)",02-877-4559,37.4798707,126.9530917
새보건약국,16835,경기도 용인시 수지구 풍덕천로130번길 4 1층 (풍덕천동),031-266-2997,37.3229878,127.0962632
트리플약국,6038,"서울특별시 강남구 도산대로 108 1층 일부호 (논현동, 렉스타워)",02-517-5256,37.5161887,127.0206793
횡성약국,25233,강원도 횡성군 횡성읍 횡성로 407 1층,033-343-0051,37.489224,127.9858521
더편한약국,22227,인천광역시 미추홀구 인주대로 404 1층 (주안동),032-427-7698,37.4510599,126.6814652
메디칼신대방약국,6953,서울특별시 동작구 상도로 77 (대방동),02-822-1344,37.4999073,126.9292454
남춘천대형약국,24412,강원도 춘천시 신동면 김유정로 1634 (),033-262-9328,37.8332905,127.7291153
나은약국,42908,대구광역시 달성군 다사읍 매곡로12길 31 (),,35.8650279,128.4560971
늘건강약국,12133,경기도 남양주시 진건읍 사릉로442번길 19 105호 (경진빌딩),031-529-3930,37.6587534,127.1775862
소망약국,59004,전라남도 해남군 문내면 동영길 22 (문내면),061-532-1356,34.5970886,126.3130221
그린약국,61409,광주광역시 동구 갈마로 58 성현빌딩 1층 103호 (산수동),062-262-2340,35.1615712,126.9368225
나래종로약국,61087,광주광역시 북구 첨단연신로 97 106.107호 (신용동),070-4221-9797,35.206596,126.8640276
도동약국,52763,경상남도 진주시 도동로 260 1층 (하대동),,35.193517,128.1220864
새서울약국,24015,강원도 철원군 동송읍 이평2로 11 (동송읍),,38.2067911,127.2204898
송정온누리약국,7623,서울특별시 강서구 공항대로 34 (공항동),02-2661-7563,37.5610119,126.8109723
미소약국,21614,인천광역시 남동구 서창남순환로215번길 48 102호 (서창동),032-468-7323,37.4261816,126.7476057
코코약국,62306,광주광역시 광산구 임방울대로 334 1층 102호 (수완동),062-430-1412,35.1897833,126.82416
비타민약국,30103,"세종특별자치시 절재로 194 104호 (어진동, 세종드림)",044-865-8838,36.5082343,127.2624604
도안새봄약국,34218,대전광역시 유성구 도안북로 79 지상1층 (용계동),042-719-2177,36.3303268,127.3371499
강남약국,42004,"대구광역시 수성구 수성로 412 117동 104호 (수성동4가, 수성보성타운상가)",053-746-1445,35.8626522,128.6151594
솔약국,14782,경기도 부천시 범안로 117 현대리치모아 3층 306호 일부호 (범박동),032-342-2428,37.4712481,126.8096277
실로암약국,62314,광주광역시 광산구 하남대로 288 (운남동),062-954-6897,35.1787763,126.82505
태평양약국,61207,광주광역시 북구 우치로 68 (중흥동),062-511-3888,35.1732951,126.912811
365명지약국,46726,부산광역시 강서구 명지국제2로28번길 3 108호 (명지동),051-271-0365,35.0940846,128.9076702
푸른솔약국,16944,경기도 용인시 수지구 광교중앙로 301 (상현동),031-215-5413,37.2969741,127.0687184
은혜온누리약국,12947,경기도 하남시 대청로 33 (신장동),031-795-0642,37.5411027,127.2160105
굿모닝약국,46327,부산광역시 금정구 서동로 168 송월빌딩 1층 102호 (서동),051-757-5252,35.2144461,129.1047804
국제약국,57956,전라남도 순천시 중앙1길 4 국제약국 1층 (장천동),061-745-5544,34.9478093,127.4877248
노원행복한약국,1693,"서울특별시 노원구 상계로 63-7 1층 (상계동, 청우빌딩)",02-952-1609,37.6565125,127.0618955
두리약국,24715,강원도 고성군 거진읍 거진길 39 (거진읍),033-682-0995,38.4474389,128.4547944
신사수약국,6030,서울특별시 강남구 압구정로28길 28 1층 일부호 (신사동),542-8032,37.5247742,127.0275307
명일마트종로약국,5269,"서울특별시 강동구 고덕로 276 지하1층 (명일동, 이마트명일점)",02-428-7845,37.5547101,127.1556015
장춘당약국,27386,충청북도 충주시 중앙로 59 (충의동),847-7138,36.9731027,127.9300498
허브약국,2454,서울특별시 동대문구 경희대로 19-3 1층 (회기동),,37.5932403,127.0523658
즐거운약국,6551,서울특별시 서초구 동광로1길 112 206호 (방배동),02-536-8609,37.4968205,126.9845952
새경희약국,2454,서울특별시 동대문구 경희대로1가길 27 (회기동),02-964-2199,37.5930581,127.0514948
가양메디칼약국,7527,서울특별시 강서구 양천로57길 13 (가양동),02-3661-3055,37.5636025,126.8520407
한솔약국,7527,서울특별시 강서구 양천로57길 37 (가양동),02-2659-2425,37.5652728,126.8519916
가나약국,3379,"서울특별시 은평구 서오릉로 46 201동  상가 104호 (녹번동, 녹번2차 현대아파트)",02-352-5088,37.605169,126.925006
늘푸른약국,6109,"서울특별시 강남구 언주로 601 파크랜드빌딩 지하1층 4,5호 (논현동)",568-5560,37.5088657,127.0377994
백세약국,1354,서울특별시 도봉구 도당로15길 12 (방학동),02-3492-9373,37.6661226,127.0368048
세계로약국,6691,서울특별시 서초구 동작대로 38 (방배동),02-3474-2599,37.479828,126.9822163
다나은온누리약국,54139,전라북도 군산시 하나운로 71 1층 (나운동),063-471-5086,35.9648733,126.7019275
하나약국,46055,부산광역시 기장군 기장읍 차성로 436 1층,051-724-7761,35.254483,129.2177784
다정약국,10071,경기도 김포시 김포한강4로 521 한강메디플라자 108호 (구래동),031-985-3338,37.6458416,126.6261073
광장약국,16630,경기도 수원시 권선구 호매실로90번길 76 1층 118호 (호매실동),031-296-7288,37.2587665,126.9643169
유성약국,21510,인천광역시 남동구 백범로 338 (간석동),032-422-8276,37.4648673,126.7131791
주연온누리약국,5652,"서울특별시 송파구 위례성대로 158 대림아파트 116,117호 (오금동)",02-6953-3753,37.5109238,127.1286509
정문약국,27695,충청북도 음성군 음성읍 수정로 31 1층,043-873-9492,36.9343921,127.6897949
새중앙약국,46557,부산광역시 북구 만덕1로 26 중앙빌딩 101호 (만덕동),051-932-8532,35.2144302,129.0347716
호호약국,8759,서울특별시 관악구 남부순환로 1595 1층 (신림동),02-882-2633,37.4842663,126.9277222
DMC하나약국,10546,경기도 고양시 덕양구 향기4로 1 중흥메디프라자 108호 (향동동),070-4110-2582,37.6006999,126.8952168
진심약국,11689,경기도 의정부시 호국로 1319 남평프라자 1층 105호 (의정부동),031-841-5690,37.7439301,127.0507776
으뜸약국,16243,경기도 수원시 팔달구 세지로 349 (지동),031-257-7253,37.2819521,127.0252382
윤슬약국,24378,강원도 춘천시 후석로 7 1층 (석사동),033-262-6207,37.8563129,127.7389389
하나약국,12913,경기도 하남시 미사강변동로 73 미사강변 노블레스 112호 (망월동),031-8027-9191,37.5615554,127.1930378
종각팜약국,3189,서울특별시 종로구 종로 68 대한기독교서회 1층 (종로2가),02-738-6500,37.5699064,126.9849451
상계종로약국,1699,서울특별시 노원구 한글비석로 363 1층 (중계동),02-934-7358,37.6579937,127.0744474
밝은미소약국,10500,경기도 고양시 덕양구 화신로272번길 58 영프라자빌딩 405호 (화정동),031-972-7512,37.6336275,126.8321555
드림약국,10322,"경기도 고양시 일산동구 위시티4로 46 2층 204 일부호 (식사동, 위시티일산자이2단지아파트)",031-967-0053,37.682392,126.8159951
청춘약국,24537,강원도 양구군 양구읍 양구새싹로 7-3 (),033-481-7390,38.1020906,127.9860487
7층약국,49427,부산광역시 사하구 낙동남로 1412 경부빌딩 7층 (하단동),051-291-4478,35.1057921,128.966083
편안한약국,42602,"대구광역시 달서구 달구벌대로205길 7 1, 2층 (호산동)",053-585-5799,35.8536413,128.4785265
봄날약국,10908,경기도 파주시 경의로 1070 호수프라자 1층 105호 (야당동),031-942-3104,37.7128607,126.7597331
해동약국,52668,경상남도 진주시 서장대로 263 1층 (이현동),055-746-1736,35.1918374,128.0621105
마트약국,50804,경상남도 김해시 상동면 동북로 481 (),055-333-0644,35.3156123,128.9678672
이강약국,14546,경기도 부천시 석천로 171 중동프라자 1층 112호 (중동),032-322-8593,37.5029891,126.7625201
위케어 만수약국,21591,인천광역시 남동구 장승로 41 1층 102호 (만수동),032-464-7707,37.4453313,126.7372071
우리안약국,7301,서울특별시 영등포구 영신로34길 5 1층 (영등포동4가),02-2631-3880,37.5200503,126.9018257
다산365약국,12249,경기도 남양주시 다산중앙로82번길 78 세진프라자 103호 (다산동),031-566-0365,37.6198255,127.1632506
든든약국,4794,서울특별시 성동구 아차산로 113 삼진빌딩 3층 303-2호 (성수동2가),02-469-0749,37.5446877,127.0569122
서초프라자약국,6665,서울특별시 서초구 방배로 88 1층 (방배동),02-597-4959,37.482364,126.9973977
수서역약국,6362,서울특별시 강남구 광평로 270 수서역 339-111호 (수서동),02-3412-5533,37.487389,127.1018592
크린팜대학약국,10325,경기도 고양시 일산동구 동국로 24 1(일부)층 (식사동),031-962-4763,37.6762196,126.8075761
신방약국,31206,충청남도 천안시 동남구 풍세로 656 A동 1층 (신방동),041-579-7580,36.770424,127.1349676
동피랑약국,53049,경상남도 통영시 동문로 3-1 (태평동),055-648-9851,34.8463466,128.4243066
해님약국,51112,경상남도 창원시 의창구 북면 감계로110번길 54-39 (),055-291-5550,35.3015564,128.5955592
녹십자약국,50232,경상남도 합천군 합천읍 옥산로 69 (),055-933-0095,35.5684256,128.1628314
종로세화온누리약국,3190,서울특별시 종로구 종로 86 보원빌딩 1층 (종로2가),02-733-2478,37.5699463,126.9870196
한마음약국,46624,부산광역시 북구 시랑로 159 한미빌딩 1층 (구포동),051-337-9955,35.1962306,129.012737
비타민약국,15809,"경기도 군포시 엘에스로 143 1011호의 일부호 (금정동, 힐스테이트 금정역)",031-429-7579,37.3728503,126.9449233
3층약국,10391,"경기도 고양시 일산서구 킨텍스로 240 304(일부)호 (대화동, 킨텍스 꿈에그린)",,37.6659014,126.7504499
목동한미약국,8104,서울특별시 양천구 목동남로4길 2 118~123호 (신정동),2649-8367,37.5082218,126.864506
산들약국,7301,"서울특별시 영등포구 영신로34길 10 1층 101호 (영등포동4가, 영남빌딩)",02-2068-5551,37.5197849,126.9019704
터미널약국,39232,경상북도 구미시 송원동로 67 (원평동),054-453-8553,36.1227473,128.3506497
명성약국,50628,경상남도 양산시 양주로 129 리얼프라자 103호 (중부동),055-388-5255,35.3366998,129.0317648
새싹약국,47253,부산광역시 부산진구 새싹로 24 1층 (부전동),051-809-0116,35.1599543,129.0575755
바른약국,57968,전라남도 순천시 조례못등길 16 금당빌딩 1층 (조례동),061-721-6868,34.9542063,127.5263787
비타약국,51329,경상남도 창원시 마산합포구 삼호로 45 (산호동),055-244-6238,35.2214516,128.5853744
오약국,21615,인천광역시 남동구 서창남순환로 140 1층 105호 (서창동),032-464-3347,37.4279312,126.7436649
매교푸른약국,16469,경기도 수원시 팔달구 인계로 20 상가1동 B105호 (매교동),031-221-8403,37.2702,127.0182085
현대약국,4741,서울특별시 성동구 독서당로 384 중앙노인정 102호 (응봉동),02-2292-0217,37.5499106,127.0310936
편안한약국,47285,부산광역시 부산진구 가야대로 786 (부전동),051-807-2700,35.1573834,129.0574974
바른약국,47521,부산광역시 연제구 월드컵대로 186 (거제동),051-865-1650,35.1881501,129.0765108
정성약국,62345,광주광역시 광산구 사암로 277 1층 (월곡동),062-956-6075,35.169229,126.8088079
미래건강약국,44510,울산광역시 중구 화합로 409 (반구동),052-297-3373,35.561728,129.3379331
동신약국,13305,경기도 성남시 수정구 수정로 139 (태평동),031-755-8040,37.4422668,127.1356034
제일약국,10417,경기도 고양시 일산동구 일산로 214 화성프라자 1층 101호 (마두동),031-904-3158,37.6554959,126.7898653
바른약국,44715,울산광역시 남구 남중로 37 1층 105호 (삼산동),052-267-0923,35.5377216,129.3471946
기운찬판도라약국,14202,경기도 광명시 광명로 907 광명빌딩 (광명동),02-2060-6672,37.4798885,126.8543332
서울수약국,4501,서울특별시 중구 만리재로 177 한라비발디 센트랄상가 9호 (만리동2가),02-363-3383,37.5549223,126.9652534
건강한약국,47734,부산광역시 동래구 중앙대로1325번길 29 (온천동),051-553-6500,35.2054223,129.0761568
린네약국,12571,경기도 양평군 강상면 학곡길 58-14 (),031-771-5950,37.4761369,127.468086
숭인약국,1211,서울특별시 강북구 도봉로 59 1층 (미아동),02-988-7196,37.6142243,127.0296793
해솔약국,10500,경기도 고양시 덕양구 화중로 54 서일빌딩 110호 (화정동),031-979-9465,37.6319319,126.8307629
에메랄드약국,6039,서울특별시 강남구 도산대로 122 에메랄드타워 1층 (논현동),02-3443-0991,37.516854,127.0221405
행복한약국,48254,부산광역시 수영구 수영로 611 1층 (광안동),051-753-1888,35.1602962,129.1134486
희망약국,62249,"광주광역시 광산구 왕버들로251번길 27 상가1동 106호 (신창동, 신창5차호반베르디움)",956-8956,35.1981906,126.8364257
여름약국,11028,경기도 연천군 전곡읍 전곡로161번길 9 1층 101호 (영도플라자),031-832-2200,38.0261989,127.0672975
우리약국,31134,충청남도 천안시 서북구 쌍용대로 318 (성정동),041-592-5029,36.8256132,127.1376959
다인파랑새약국,10450,"경기도 고양시 일산동구 강송로 49 윈스턴파크 1층 103,104호 (백석동)",905-0035,37.6448507,126.7920834
참솔온누리약국,14569,경기도 부천시 부천로 108 참솔빌딩 101호 (원미동),032-662-8357,37.4938045,126.7852266
마루약국,14236,경기도 광명시 철산로 15 웅진빌딩 102호 (철산동),02-2682-9752,37.4764576,126.8677139
송파한약국,5616,"서울특별시 송파구 백제고분로39길 16 2층 (석촌동, 석촌빌딩)",416-6336,37.5057703,127.1047091
봄빛약국,7237,서울특별시 영등포구 국회대로70길 12 대산빌딩 1층 101호 (여의도동),02-785-3331,37.5293678,126.9198852
황약국,21405,인천광역시 부평구 마장로 82 현대다섬프라자 103호 (십정동),032-524-9957,37.4860467,126.7082936
오로라약국,5746,서울특별시 송파구 성내천로33길 9 1층 (마천동),02-408-5547,37.5003899,127.1530106
온유약국,42253,대구광역시 수성구 시지로3길 66-10 (시지동),053-795-7374,35.8415628,128.6958228
세종 권약국,30123,세종특별자치시 가온로 8 104호 (다정동),044-868-5850,36.4914625,127.2548754
양재숲약국,6779,서울특별시 서초구 마방로2길 57 승진빌딩 1층 102호 (양재동),02-2039-8976,37.4710797,127.0394792
드림약국,17854,경기도 평택시 비전5로 3 (비전동),031-654-2164,36.9999179,127.111611
한신약국,35250,대전광역시 서구 문정로 174 (둔산동),042-482-5898,36.3497795,127.3954812
드림케어약국,6030,"서울특별시 강남구 압구정로 162 1층 107호 (신사동, 베네하임시티)",070-8840-2878,37.5263327,127.0274689
제일건강한약국,15811,경기도 군포시 군포로 747 1층 (산본동),031-394-5757,37.3718404,126.9427957
밝은약국,6225,"서울특별시 강남구 역삼로 247 102호 (역삼동, 홍진빌딩)",02-557-8575,37.4979648,127.0431669
에코윤약국,55149,전라북도 전주시 덕진구 과학로 20 엘디엠시티 107호 (송천동2가),,35.871972,127.1227184
한마음약국,10564,경기도 고양시 덕양구 삼송로 12 107호 (원흥동),031-963-1771,37.6496167,126.8755307
초록약국,46726,"부산광역시 강서구 명지국제11로 25 (명지동, 동명빌딩104호)",051-291-5799,35.1048452,128.9212855
참조은약국,4168,"서울특별시 마포구 마포대로 92 1층 (도화동, 효성 해링턴 스퀘어)",02-715-8953,37.5425431,126.9521969
도매당약국,16262,경기도 수원시 팔달구 정조로 776 (팔달로3가),256-9816,37.277334,127.0173547
행복수원제일약국,16262,경기도 수원시 팔달구 중부대로 17 1층 (영동),031-256-8066,37.2755151,127.018847
종촌탑약국,30064,세종특별자치시 도움1로 106 메가시티 6층 615-2호 (종촌동),044-903-0067,36.502816,127.2481238
희망찬약국,33642,충청남도 서천군 서천읍 충절로59번길 18 (),041-953-8969,36.0757535,126.6899111
제인약국,3629,서울특별시 서대문구 통일로 442-3 제1호 (홍제동),02-379-0213,37.5887108,126.9447948
바른약국,12771,경기도 광주시 신현로 9 1층 (신현동),070-8129-8275,37.3601026,127.1482455
건강드림약국,46566,부산광역시 북구 덕천로 299 (만덕동),051-343-7577,35.2097558,129.0365894
힘찬약국,37756,경상북도 포항시 북구 중흥로 171 (죽도동),054-254-1177,36.0194847,129.3550787
4층새빛약국,18025,경기도 평택시 신촌2로 22 B동 405호 (칠원동),0507-1378-1655,37.0260471,127.1040567
화일약국,16604,경기도 수원시 권선구 금호로 230 (탑동),031-292-3056,37.2752455,126.9753063
한사랑약국,21506,인천광역시 남동구 주안로 231 1층일부호 (간석동),032-424-7890,37.4635081,126.6955926
난곡비타민약국,8864,서울특별시 관악구 난곡로 231 1층 (신림동),02-855-8885,37.4749558,126.916633
코끼리약국,6038,"서울특별시 강남구 도산대로 110 지하101호 (논현동, KBL센터)",02-512-0380,37.5162749,127.0210472
한마음약국,7327,"서울특별시 영등포구 국제금융로2길 37 3층 306-1호 (여의도동, 에스트레뉴)",,37.5229862,126.92431
수인약국,11940,경기도 구리시 체육관로80번길 19 102호 (수택동),031-556-3004,37.5919196,127.1390495
서호약국,16630,경기도 수원시 권선구 호매실로90번길 77 1층 113호 (호매실동),031-547-9611,37.25881,126.9635713
정다운약국,22174,인천광역시 미추홀구 인중로 13 햇살병원 1층 좌측호 (숭의동),032-882-5914,37.4624885,126.641038
우리두리온누리약국,24221,"강원도 춘천시 우두1길 17 우리  프라자 1층 101,102호 (우두동)",033-252-5222,37.9113569,127.7385546
보건약국,57537,전라남도 곡성군 곡성읍 중앙로 89 (곡성읍),061-363-2580,35.2801822,127.2926669
상일약국,39362,경상북도 구미시 금오대로14길 3 (오태동),054-464-1991,36.0716827,128.3498774
대학약국,11106,경기도 포천시 영북면 영북로 173 (영북면),031-531-3900,38.0897391,127.2745463
열린약국,39211,"경상북도 구미시 도봉로5길 11 (봉곡동, 주공2지구 1단지 상가 202호)",054-452-2250,36.1423237,128.3163125
싱글벙글약국,46576,부산광역시 북구 만덕대로 18 금샘빌딩 106호 (덕천동),051-338-8922,35.2103352,129.0071035
